{"type": "FeatureCollection", "features": [{"type": "Feature", "id": 1, "geometry": {"type": "Point", "coordinates": [-77.62166667038048, 2.871805555681874]}, "properties": {"ELEV": 30, "COD_DPTO": 19, "COD_MUNICI": 19809, "DEPARTAMEN": "Cauca", "OBJECTID": 1, "CODIGO": "53060020", "ESTACION": "Saija", "LON": -77.62166667, "LAT": 2.871805556, "MUNICIPIO": "Timbiquí", "DATO": 134, "CATEGORIA": "Pluviométrica", "TECNOLOGIA": "Convencional"}}, {"type": "Feature", "id": 2, "geometry": {"type": "Point", "coordinates": [-73.67500999971168, 2.9761899995688736]}, "properties": {"ELEV": 246, "COD_DPTO": 50, "COD_MUNICI": 50711, "DEPARTAMEN": "Meta", "OBJECTID": 2, "CODIGO": "32070040", "ESTACION": "Piñalito", "LON": -73.67501, "LAT": 2.97619, "MUNICIPIO": "Vistahermosa", "DATO": 110, "CATEGORIA": "Pluviométrica", "TECNOLOGIA": "Convencional"}}, {"type": "Feature", "id": 3, "geometry": {"type": "Point", "coordinates": [-72.38750000002494, 5.320444443955978]}, "properties": {"ELEV": 325, "COD_DPTO": 85, "COD_MUNICI": 85001, "DEPARTAMEN": "Casanare", "OBJECTID": 3, "CODIGO": "35215020", "ESTACION": "Aeropuerto Yopal - Aut", "LON": -72.3875, "LAT": 5.320444444, "MUNICIPIO": "Yopal", "DATO": 102.8, "CATEGORIA": "Climática Principal", "TECNOLOGIA": "Automática con Telemetría, Convencional"}}, {"type": "Feature", "id": 4, "geometry": {"type": "Point", "coordinates": [-78.09133332996919, 2.441888889160964]}, "properties": {"ELEV": 50, "COD_DPTO": 52, "COD_MUNICI": 52250, "DEPARTAMEN": "Nariño", "OBJECTID": 4, "CODIGO": "53020010", "ESTACION": "Charco El", "LON": -78.09133333, "LAT": 2.441888889, "MUNICIPIO": "El Charco", "DATO": 95, "CATEGORIA": "Pluviométrica", "TECNOLOGIA": "Convencional"}}, {"type": "Feature", "id": 5, "geometry": {"type": "Point", "coordinates": [-73.00243000024426, 4.755770000385269]}, "properties": {"ELEV": 327, "COD_DPTO": 85, "COD_MUNICI": 85300, "DEPARTAMEN": "Casanare", "OBJECTID": 5, "CODIGO": "35090110", "ESTACION": "Don Antonio", "LON": -73.00243, "LAT": 4.75577, "MUNICIPIO": "Sabanalarga", "DATO": 94, "CATEGORIA": "Pluviométrica", "TECNOLOGIA": "Convencional"}}, {"type": "Feature", "id": 6, "geometry": {"type": "Point", "coordinates": [-72.54738889008519, 5.17708333312936]}, "properties": {"ELEV": 380, "COD_DPTO": 85, "COD_MUNICI": 85010, "DEPARTAMEN": "Casanare", "OBJECTID": 6, "CODIGO": "35195030", "ESTACION": "Aguazul", "LON": -72.54738889, "LAT": 5.177083333, "MUNICIPIO": "Aguazul", "DATO": 84.6, "CATEGORIA": "Climática Ordinaria", "TECNOLOGIA": "Convencional"}}, {"type": "Feature", "id": 7, "geometry": {"type": "Point", "coordinates": [-73.92242000028273, 3.792580000166936]}, "properties": {"ELEV": 673, "COD_DPTO": 50, "COD_MUNICI": 50223, "DEPARTAMEN": "Meta", "OBJECTID": 7, "CODIGO": "32060100", "ESTACION": "Puerto Angosturas", "LON": -73.92242, "LAT": 3.79258, "MUNICIPIO": "Cubarral", "DATO": 83, "CATEGORIA": "Pluviométrica", "TECNOLOGIA": "Convencional"}}, {"type": "Feature", "id": 8, "geometry": {"type": "Point", "coordinates": [-77.89474999961277, 2.5744166667957984]}, "properties": {"ELEV": 42, "COD_DPTO": 19, "COD_MUNICI": 19318, "DEPARTAMEN": "Cauca", "OBJECTID": 8, "CODIGO": "53045040", "ESTACION": "Aeropuerto Guapi - Aut", "LON": -77.89475, "LAT": 2.574416667, "MUNICIPIO": "Guapi", "DATO": 78, "CATEGORIA": "Climática Principal", "TECNOLOGIA": "Automática con Telemetría, Convencional"}}, {"type": "Feature", "id": 9, "geometry": {"type": "Point", "coordinates": [-72.22936110972739, 5.49188888936078]}, "properties": {"ELEV": 395, "COD_DPTO": 85, "COD_MUNICI": 85001, "DEPARTAMEN": "Casanare", "OBJECTID": 9, "CODIGO": "35210050", "ESTACION": "Chaparrera La", "LON": -72.22936111, "LAT": 5.491888889, "MUNICIPIO": "Yopal", "DATO": 76, "CATEGORIA": "Pluviográfica", "TECNOLOGIA": "Convencional"}}, {"type": "Feature", "id": 10, "geometry": {"type": "Point", "coordinates": [-73.25675000021232, 4.860777777872215]}, "properties": {"ELEV": 850, "COD_DPTO": 15, "COD_MUNICI": 15690, "DEPARTAMEN": "Boyacá", "OBJECTID": 10, "CODIGO": "35070180", "ESTACION": "Santa Maria", "LON": -73.25675, "LAT": 4.860777778, "MUNICIPIO": "Santa María", "DATO": 74.5, "CATEGORIA": "Pluviográfica", "TECNOLOGIA": "Convencional"}}, {"type": "Feature", "id": 11, "geometry": {"type": "Point", "coordinates": [-73.20999999999998, 2.939999999800193]}, "properties": {"ELEV": 230, "COD_DPTO": 50, "COD_MUNICI": 50590, "DEPARTAMEN": "Meta", "OBJECTID": 11, "CODIGO": "32080010", "ESTACION": "Puerto Rico", "LON": -73.21, "LAT": 2.94, "MUNICIPIO": "Puerto Rico", "DATO": 73, "CATEGORIA": "Pluviométrica", "TECNOLOGIA": "Convencional"}}, {"type": "Feature", "id": 12, "geometry": {"type": "Point", "coordinates": [-76.07349999992499, 4.38305555616904]}, "properties": {"ELEV": 953, "COD_DPTO": 76, "COD_MUNICI": 76895, "DEPARTAMEN": "Valle Del Cauca", "OBJECTID": 12, "CODIGO": "26100780", "ESTACION": "Zarzal", "LON": -76.0735, "LAT": 4.383055556, "MUNICIPIO": "Zarzal", "DATO": 72, "CATEGORIA": "Pluviométrica", "TECNOLOGIA": "Convencional"}}, {"type": "Feature", "id": 13, "geometry": {"type": "Point", "coordinates": [-73.61767699979367, 4.274602000182199]}, "properties": {"ELEV": 1273, "COD_DPTO": 50, "COD_MUNICI": 50606, "DEPARTAMEN": "Meta", "OBJECTID": 13, "CODIGO": "35030090", "ESTACION": "Buenavista", "LON": -73.617677, "LAT": 4.274602, "MUNICIPIO": "Restrepo", "DATO": 71, "CATEGORIA": "Pluviográfica", "TECNOLOGIA": "Convencional"}}, {"type": "Feature", "id": 14, "geometry": {"type": "Point", "coordinates": [-72.00263888957306, 5.634388889435741]}, "properties": {"ELEV": 320, "COD_DPTO": 85, "COD_MUNICI": 85263, "DEPARTAMEN": "Casanare", "OBJECTID": 14, "CODIGO": "35230040", "ESTACION": "Banco El", "LON": -72.00263889, "LAT": 5.634388889, "MUNICIPIO": "Pore", "DATO": 71, "CATEGORIA": "Pluviográfica", "TECNOLOGIA": "Convencional"}}, {"type": "Feature", "id": 15, "geometry": {"type": "Point", "coordinates": [-73.47055555999106, 4.723305556406331]}, "properties": {"ELEV": 1791, "COD_DPTO": 25, "COD_MUNICI": 25293, "DEPARTAMEN": "Cundinamarca", "OBJECTID": 15, "CODIGO": "35060120", "ESTACION": "La Vega San Juan", "LON": -73.47055556, "LAT": 4.723305556, "MUNICIPIO": "Gachalá", "DATO": 70.5, "CATEGORIA": "Pluviométrica", "TECNOLOGIA": "Convencional"}}, {"type": "Feature", "id": 16, "geometry": {"type": "Point", "coordinates": [-72.8698416667595, 5.027257777624413]}, "properties": {"ELEV": 460, "COD_DPTO": 85, "COD_MUNICI": 85410, "DEPARTAMEN": "Casanare", "OBJECTID": 16, "CODIGO": "35195020", "ESTACION": "Tauramena", "LON": -72.869841667, "LAT": 5.027257778, "MUNICIPIO": "Tauramena", "DATO": 69, "CATEGORIA": "Meteorológica Especial", "TECNOLOGIA": "Automática con Telemetría"}}, {"type": "Feature", "id": 17, "geometry": {"type": "Point", "coordinates": [-78.65833333041883, 2.0388888892109094]}, "properties": {"ELEV": 3, "COD_DPTO": 52, "COD_MUNICI": 52520, "DEPARTAMEN": "Nariño", "OBJECTID": 17, "CODIGO": "52090010", "ESTACION": "Salahonda", "LON": -78.65833333, "LAT": 2.038888889, "MUNICIPIO": "Francisco Pizarro", "DATO": 65, "CATEGORIA": "Pluviométrica", "TECNOLOGIA": "Convencional"}}, {"type": "Feature", "id": 18, "geometry": {"type": "Point", "coordinates": [-73.7080390002996, 3.708429000098306]}, "properties": {"ELEV": 435, "COD_DPTO": 50, "COD_MUNICI": 50689, "DEPARTAMEN": "Meta", "OBJECTID": 18, "CODIGO": "35010090", "ESTACION": "San Martin", "LON": -73.708039, "LAT": 3.708429, "MUNICIPIO": "San Martín", "DATO": 64, "CATEGORIA": "Pluviométrica", "TECNOLOGIA": "Convencional"}}, {"type": "Feature", "id": 19, "geometry": {"type": "Point", "coordinates": [-73.62499800015752, 4.137224999833904]}, "properties": {"ELEV": 432, "COD_DPTO": 50, "COD_MUNICI": 50001, "DEPARTAMEN": "Meta", "OBJECTID": 19, "CODIGO": "35030370", "ESTACION": "Ica Villavicencio", "LON": -73.624998, "LAT": 4.137225, "MUNICIPIO": "Villavicencio", "DATO": 62, "CATEGORIA": "Pluviométrica", "TECNOLOGIA": "Convencional"}}, {"type": "Feature", "id": 20, "geometry": {"type": "Point", "coordinates": [-74.02997000021531, 3.45655999984416]}, "properties": {"ELEV": 868, "COD_DPTO": 50, "COD_MUNICI": 50683, "DEPARTAMEN": "Meta", "OBJECTID": 20, "CODIGO": "32070120", "ESTACION": "Mesa De Fernandez", "LON": -74.02997, "LAT": 3.45656, "MUNICIPIO": "San Juan De Arama", "DATO": 58, "CATEGORIA": "Pluviométrica", "TECNOLOGIA": "Convencional"}}, {"type": "Feature", "id": 21, "geometry": {"type": "Point", "coordinates": [-73.04972221970462, 5.003500000424708]}, "properties": {"ELEV": 1200, "COD_DPTO": 15, "COD_MUNICI": 15135, "DEPARTAMEN": "Boyacá", "OBJECTID": 21, "CODIGO": "35090050", "ESTACION": "Vista Hermosa", "LON": -73.04972222, "LAT": 5.0035, "MUNICIPIO": "Campohermoso", "DATO": 57.7, "CATEGORIA": "Pluviométrica", "TECNOLOGIA": "Convencional"}}, {"type": "Feature", "id": 22, "geometry": {"type": "Point", "coordinates": [-73.84277800040434, 3.790721999920436]}, "properties": {"ELEV": 591, "COD_DPTO": 50, "COD_MUNICI": 50223, "DEPARTAMEN": "Meta", "OBJECTID": 22, "CODIGO": "32060030", "ESTACION": "San Luis Cubarral", "LON": -73.842778, "LAT": 3.790722, "MUNICIPIO": "Cubarral", "DATO": 56, "CATEGORIA": "Pluviométrica", "TECNOLOGIA": "Convencional"}}, {"type": "Feature", "id": 23, "geometry": {"type": "Point", "coordinates": [-78.18388889026005, 1.7650000003498008]}, "properties": {"ELEV": 100, "COD_DPTO": 52, "COD_MUNICI": 52427, "DEPARTAMEN": "Nariño", "OBJECTID": 23, "CODIGO": "52070010", "ESTACION": "Magui", "LON": -78.18388889, "LAT": 1.765, "MUNICIPIO": "Magüí", "DATO": 55, "CATEGORIA": "Pluviométrica", "TECNOLOGIA": "Convencional"}}, {"type": "Feature", "id": 24, "geometry": {"type": "Point", "coordinates": [-72.91545799958698, 4.651439999656304]}, "properties": {"ELEV": 345, "COD_DPTO": 85, "COD_MUNICI": 85440, "DEPARTAMEN": "Casanare", "OBJECTID": 24, "CODIGO": "35095110", "ESTACION": "Huerta La Grande", "LON": -72.915458, "LAT": 4.65144, "MUNICIPIO": "Villanueva", "DATO": 53, "CATEGORIA": "Climática Principal", "TECNOLOGIA": "Automática con Telemetría, Convencional"}}, {"type": "Feature", "id": 25, "geometry": {"type": "Point", "coordinates": [-76.99238888893603, 3.8201111114386777]}, "properties": {"ELEV": 28, "COD_DPTO": 76, "COD_MUNICI": 76109, "DEPARTAMEN": "Valle Del Cauca", "OBJECTID": 25, "CODIGO": "53115010", "ESTACION": "Aeropuerto Buenaventur", "LON": -76.992388889, "LAT": 3.820111111, "MUNICIPIO": "Buenaventura", "DATO": 53, "CATEGORIA": "Pluviométrica", "TECNOLOGIA": "Convencional"}}, {"type": "Feature", "id": 26, "geometry": {"type": "Point", "coordinates": [-71.43308299968066, 4.910528000067188]}, "properties": {"ELEV": 139, "COD_DPTO": 85, "COD_MUNICI": 85230, "DEPARTAMEN": "Casanare", "OBJECTID": 26, "CODIGO": "35225030", "ESTACION": "Modulos - Aut", "LON": -71.433083, "LAT": 4.910528, "MUNICIPIO": "Orocué", "DATO": 53, "CATEGORIA": "Climática Ordinaria", "TECNOLOGIA": "Automática con Telemetría, Convencional"}}, {"type": "Feature", "id": 27, "geometry": {"type": "Point", "coordinates": [-71.66616666965604, 5.4190277777098]}, "properties": {"ELEV": 265, "COD_DPTO": 85, "COD_MUNICI": 85430, "DEPARTAMEN": "Casanare", "OBJECTID": 27, "CODIGO": "35235040", "ESTACION": "Trinidad - Aut", "LON": -71.66616667, "LAT": 5.419027778, "MUNICIPIO": "Trinidad", "DATO": 52.5, "CATEGORIA": "Climática Ordinaria", "TECNOLOGIA": "Automática con Telemetría, Convencional"}}, {"type": "Feature", "id": 28, "geometry": {"type": "Point", "coordinates": [-72.11583332964443, 7.006111111438713]}, "properties": {"ELEV": 370, "COD_DPTO": 54, "COD_MUNICI": 54820, "DEPARTAMEN": "Norte De Santander", "OBJECTID": 28, "CODIGO": "37035010", "ESTACION": "Tunebia", "LON": -72.11583333, "LAT": 7.006111111, "MUNICIPIO": "Toledo", "DATO": 52.3, "CATEGORIA": "Climática Ordinaria", "TECNOLOGIA": "Convencional"}}, {"type": "Feature", "id": 29, "geometry": {"type": "Point", "coordinates": [-73.34706200021111, 4.506474000075116]}, "properties": {"ELEV": 531, "COD_DPTO": 25, "COD_MUNICI": 25438, "DEPARTAMEN": "Cundinamarca", "OBJECTID": 29, "CODIGO": "35050010", "ESTACION": "Medina", "LON": -73.347062, "LAT": 4.506474, "MUNICIPIO": "Medina", "DATO": 51, "CATEGORIA": "Pluviométrica", "TECNOLOGIA": "Convencional"}}, {"type": "Feature", "id": 30, "geometry": {"type": "Point", "coordinates": [-73.16986111040188, 4.819777778421781]}, "properties": {"ELEV": 400, "COD_DPTO": 15, "COD_MUNICI": 15667, "DEPARTAMEN": "Boyacá", "OBJECTID": 30, "CODIGO": "35080070", "ESTACION": "San Luis De Gaceno", "LON": -73.16986111, "LAT": 4.819777778, "MUNICIPIO": "San Luis De Gaceno", "DATO": 49.6, "CATEGORIA": "Pluviométrica", "TECNOLOGIA": "Convencional"}}, {"type": "Feature", "id": 31, "geometry": {"type": "Point", "coordinates": [-73.16927778044516, 5.282972222290255]}, "properties": {"ELEV": 1720, "COD_DPTO": 15, "COD_MUNICI": 15897, "DEPARTAMEN": "Boyacá", "OBJECTID": 31, "CODIGO": "35080010", "ESTACION": "Zetaquira", "LON": -73.16927778, "LAT": 5.282972222, "MUNICIPIO": "Zetaquira", "DATO": 47, "CATEGORIA": "Pluviométrica", "TECNOLOGIA": "Convencional"}}, {"type": "Feature", "id": 32, "geometry": {"type": "Point", "coordinates": [-73.69102199976544, 4.188613999936194]}, "properties": {"ELEV": 1063, "COD_DPTO": 50, "COD_MUNICI": 50001, "DEPARTAMEN": "Meta", "OBJECTID": 32, "CODIGO": "35030290", "ESTACION": "Servita", "LON": -73.691022, "LAT": 4.188614, "MUNICIPIO": "Villavicencio", "DATO": 45, "CATEGORIA": "Pluviográfica", "TECNOLOGIA": "Convencional"}}, {"type": "Feature", "id": 33, "geometry": {"type": "Point", "coordinates": [-72.4562500003372, 5.453055556368895]}, "properties": {"ELEV": 656, "COD_DPTO": 85, "COD_MUNICI": 85001, "DEPARTAMEN": "Casanare", "OBJECTID": 33, "CODIGO": "35210010", "ESTACION": "Morro El", "LON": -72.45625, "LAT": 5.453055556, "MUNICIPIO": "Yopal", "DATO": 43.7, "CATEGORIA": "Pluviométrica", "TECNOLOGIA": "Convencional"}}, {"type": "Feature", "id": 34, "geometry": {"type": "Point", "coordinates": [-73.39297221979206, 4.8528333332917555]}, "properties": {"ELEV": 1757, "COD_DPTO": 25, "COD_MUNICI": 25839, "DEPARTAMEN": "Cundinamarca", "OBJECTID": 34, "CODIGO": "35067130", "ESTACION": "Mundo Nuevo", "LON": -73.39297222, "LAT": 4.852833333, "MUNICIPIO": "Ubalá", "DATO": 43.5, "CATEGORIA": "Limnimétrica", "TECNOLOGIA": "Convencional"}}, {"type": "Feature", "id": 35, "geometry": {"type": "Point", "coordinates": [-73.76564500021652, 3.9944050002905556]}, "properties": {"ELEV": 537, "COD_DPTO": 50, "COD_MUNICI": 50006, "DEPARTAMEN": "Meta", "OBJECTID": 35, "CODIGO": "35010020", "ESTACION": "Acacias", "LON": -73.765645, "LAT": 3.994405, "MUNICIPIO": "Acacías", "DATO": 43, "CATEGORIA": "Pluviométrica", "TECNOLOGIA": "Convencional"}}, {"type": "Feature", "id": 36, "geometry": {"type": "Point", "coordinates": [-73.20344443960914, 5.013611110564341]}, "properties": {"ELEV": 1600, "COD_DPTO": 15, "COD_MUNICI": 15135, "DEPARTAMEN": "Boyacá", "OBJECTID": 36, "CODIGO": "35080060", "ESTACION": "Cedros Los", "LON": -73.20344444, "LAT": 5.013611111, "MUNICIPIO": "Campohermoso", "DATO": 42.6, "CATEGORIA": "Pluviométrica", "TECNOLOGIA": "Convencional"}}, {"type": "Feature", "id": 37, "geometry": {"type": "Point", "coordinates": [-73.75954000017083, 3.879597100026217]}, "properties": {"ELEV": 513, "COD_DPTO": 50, "COD_MUNICI": 50318, "DEPARTAMEN": "Meta", "OBJECTID": 37, "CODIGO": "35010070", "ESTACION": "Guamal", "LON": -73.75954, "LAT": 3.8795971, "MUNICIPIO": "Guamal", "DATO": 42, "CATEGORIA": "Pluviométrica", "TECNOLOGIA": "Convencional"}}, {"type": "Feature", "id": 38, "geometry": {"type": "Point", "coordinates": [-73.31674999991253, 4.9743611108766]}, "properties": {"ELEV": 1300, "COD_DPTO": 15, "COD_MUNICI": 15425, "DEPARTAMEN": "Boyacá", "OBJECTID": 38, "CODIGO": "35075040", "ESTACION": "Institucion Agricola Macanal", "LON": -73.31675, "LAT": 4.974361111, "MUNICIPIO": "Macanal", "DATO": 42, "CATEGORIA": "Climática Principal", "TECNOLOGIA": "Convencional"}}, {"type": "Feature", "id": 39, "geometry": {"type": "Point", "coordinates": [-73.81869999980512, 4.248300000444715]}, "properties": {"ELEV": 1457, "COD_DPTO": 25, "COD_MUNICI": 25335, "DEPARTAMEN": "Cundinamarca", "OBJECTID": 39, "CODIGO": "35020010", "ESTACION": "Monterredondo", "LON": -73.8187, "LAT": 4.2483, "MUNICIPIO": "Guayabetal", "DATO": 42, "CATEGORIA": "Pluviométrica", "TECNOLOGIA": "Convencional"}}, {"type": "Feature", "id": 40, "geometry": {"type": "Point", "coordinates": [-73.61472000012787, 3.4588890002272024]}, "properties": {"ELEV": 297, "COD_DPTO": 50, "COD_MUNICI": 50287, "DEPARTAMEN": "Meta", "OBJECTID": 40, "CODIGO": "32070060", "ESTACION": "Fuente De Oro", "LON": -73.61472, "LAT": 3.458889, "MUNICIPIO": "Fuente De Oro", "DATO": 42, "CATEGORIA": "Pluviométrica", "TECNOLOGIA": "Convencional"}}, {"type": "Feature", "id": 41, "geometry": {"type": "Point", "coordinates": [-73.80861111011461, 7.026388890035321]}, "properties": {"ELEV": 126, "COD_DPTO": 68, "COD_MUNICI": 68081, "DEPARTAMEN": "Santander", "OBJECTID": 41, "CODIGO": "23155030", "ESTACION": "Aeropuerto Yariguies", "LON": -73.80861111, "LAT": 7.02638889, "MUNICIPIO": "Barrancabermeja", "DATO": 40.8, "CATEGORIA": "Sinóptica Principal", "TECNOLOGIA": "Automática con Telemetría, Convencional"}}, {"type": "Feature", "id": 42, "geometry": {"type": "Point", "coordinates": [-75.96999999970018, 5.080000000199902]}, "properties": {"ELEV": 1763, "COD_DPTO": 66, "COD_MUNICI": 66687, "DEPARTAMEN": "Risaralda", "OBJECTID": 42, "CODIGO": "26145030", "ESTACION": "Camelia La", "LON": -75.97, "LAT": 5.08, "MUNICIPIO": "Santuario", "DATO": 40, "CATEGORIA": "Pluviométrica", "TECNOLOGIA": "Convencional"}}, {"type": "Feature", "id": 43, "geometry": {"type": "Point", "coordinates": [-72.63986099958544, 2.3725920003205943]}, "properties": {"ELEV": 216, "COD_DPTO": 95, "COD_MUNICI": 95025, "DEPARTAMEN": "Guaviare", "OBJECTID": 43, "CODIGO": "31015010", "ESTACION": "El Trueno", "LON": -72.639861, "LAT": 2.372592, "MUNICIPIO": "El Retorno", "DATO": 40, "CATEGORIA": "Climática Ordinaria", "TECNOLOGIA": "Convencional"}}, {"type": "Feature", "id": 44, "geometry": {"type": "Point", "coordinates": [-73.77116999959577, 4.198379999737256]}, "properties": {"ELEV": 1020, "COD_DPTO": 25, "COD_MUNICI": 25335, "DEPARTAMEN": "Cundinamarca", "OBJECTID": 44, "CODIGO": "35020020", "ESTACION": "Susumuco", "LON": -73.77117, "LAT": 4.19838, "MUNICIPIO": "Guayabetal", "DATO": 39, "CATEGORIA": "Pluviográfica", "TECNOLOGIA": "Convencional"}}, {"type": "Feature", "id": 45, "geometry": {"type": "Point", "coordinates": [-76.24972221960473, 1.8489444441308365]}, "properties": {"ELEV": 1700, "COD_DPTO": 41, "COD_MUNICI": 41668, "DEPARTAMEN": "Huila", "OBJECTID": 45, "CODIGO": "21010190", "ESTACION": "Alto Del Obispo", "LON": -76.24972222, "LAT": 1.848944444, "MUNICIPIO": "San Agustín", "DATO": 38, "CATEGORIA": "Pluviométrica", "TECNOLOGIA": "Convencional"}}, {"type": "Feature", "id": 46, "geometry": {"type": "Point", "coordinates": [-70.93022500018355, 4.553890999570001]}, "properties": {"ELEV": 173, "COD_DPTO": 99, "COD_MUNICI": 99773, "DEPARTAMEN": "Vichada", "OBJECTID": 46, "CODIGO": "34015010", "ESTACION": "Las Gaviotas", "LON": -70.930225, "LAT": 4.553891, "MUNICIPIO": "Cumaribo", "DATO": 37, "CATEGORIA": "Climática Principal", "TECNOLOGIA": "Convencional"}}, {"type": "Feature", "id": 47, "geometry": {"type": "Point", "coordinates": [-73.52858333025642, 4.752388889435736]}, "properties": {"ELEV": 1929, "COD_DPTO": 25, "COD_MUNICI": 25839, "DEPARTAMEN": "Cundinamarca", "OBJECTID": 47, "CODIGO": "35060180", "ESTACION": "Ubala", "LON": -73.52858333, "LAT": 4.752388889, "MUNICIPIO": "Ubalá", "DATO": 36, "CATEGORIA": "Pluviométrica", "TECNOLOGIA": "Convencional"}}, {"type": "Feature", "id": 48, "geometry": {"type": "Point", "coordinates": [-75.33247222001688, 6.883055555669387]}, "properties": {"ELEV": 1650, "COD_DPTO": 5, "COD_MUNICI": 5038, "DEPARTAMEN": "Antioquia", "OBJECTID": 48, "CODIGO": "27020210", "ESTACION": "Angostura", "LON": -75.33247222, "LAT": 6.883055556, "MUNICIPIO": "Angostura", "DATO": 36, "CATEGORIA": "Pluviométrica", "TECNOLOGIA": "Convencional"}}, {"type": "Feature", "id": 49, "geometry": {"type": "Point", "coordinates": [-72.79365000044714, 4.281155000203171]}, "properties": {"ELEV": 165, "COD_DPTO": 50, "COD_MUNICI": 50124, "DEPARTAMEN": "Meta", "OBJECTID": 49, "CODIGO": "35100020", "ESTACION": "Cabuyaro", "LON": -72.79365, "LAT": 4.281155, "MUNICIPIO": "Cabuyaro", "DATO": 35.9, "CATEGORIA": "Pluviométrica", "TECNOLOGIA": "Convencional"}}, {"type": "Feature", "id": 50, "geometry": {"type": "Point", "coordinates": [-73.14477778017039, 5.192555555594481]}, "properties": {"ELEV": 1640, "COD_DPTO": 15, "COD_MUNICI": 15455, "DEPARTAMEN": "Boyacá", "OBJECTID": 50, "CODIGO": "35085040", "ESTACION": "Vivero El", "LON": -73.14477778, "LAT": 5.192555556, "MUNICIPIO": "Miraflores", "DATO": 34.4, "CATEGORIA": "Climática Ordinaria", "TECNOLOGIA": "Convencional"}}, {"type": "Feature", "id": 51, "geometry": {"type": "Point", "coordinates": [-72.78958333270458, -1.4446111109139679]}, "properties": {"ELEV": 160, "COD_DPTO": 91, "COD_MUNICI": 91405, "DEPARTAMEN": "Amazonas", "OBJECTID": 51, "CODIGO": "47075010", "ESTACION": "La Chorrera", "LON": -72.789583333, "LAT": -1.444611111, "MUNICIPIO": "La Chorrera", "DATO": 34, "CATEGORIA": "Climática Principal", "TECNOLOGIA": "Convencional"}}, {"type": "Feature", "id": 52, "geometry": {"type": "Point", "coordinates": [-73.35750000042464, 4.300444443656204]}, "properties": {"ELEV": 310, "COD_DPTO": 50, "COD_MUNICI": 50226, "DEPARTAMEN": "Meta", "OBJECTID": 52, "CODIGO": "35045020", "ESTACION": "Hacienda La Cabaña", "LON": -73.3575, "LAT": 4.300444444, "MUNICIPIO": "Cumaral", "DATO": 33, "CATEGORIA": "Climática Ordinaria", "TECNOLOGIA": "Convencional"}}, {"type": "Feature", "id": 53, "geometry": {"type": "Point", "coordinates": [-73.43305556006601, 4.98347222166575]}, "properties": {"ELEV": 1600, "COD_DPTO": 15, "COD_MUNICI": 15761, "DEPARTAMEN": "Boyacá", "OBJECTID": 53, "CODIGO": "35070100", "ESTACION": "Somondoco", "LON": -73.43305556, "LAT": 4.983472222, "MUNICIPIO": "Somondoco", "DATO": 33, "CATEGORIA": "Pluviométrica", "TECNOLOGIA": "Convencional"}}, {"type": "Feature", "id": 54, "geometry": {"type": "Point", "coordinates": [-73.20516666740775, -1.748509999636724]}, "properties": {"ELEV": 120, "COD_DPTO": 91, "COD_MUNICI": 91263, "DEPARTAMEN": "Amazonas", "OBJECTID": 54, "CODIGO": "47060010", "ESTACION": "El Encanto", "LON": -73.205166667, "LAT": -1.74851, "MUNICIPIO": "El Encanto", "DATO": 33, "CATEGORIA": "Pluviométrica", "TECNOLOGIA": "Convencional"}}, {"type": "Feature", "id": 55, "geometry": {"type": "Point", "coordinates": [-76.64377778012044, 5.690555560390862]}, "properties": {"ELEV": 75, "COD_DPTO": 27, "COD_MUNICI": 27001, "DEPARTAMEN": "Chocó", "OBJECTID": 55, "CODIGO": "11045010", "ESTACION": "Aeropuerto El Caraño", "LON": -76.64377778, "LAT": 5.69055556, "MUNICIPIO": "Quibdó", "DATO": 32.7, "CATEGORIA": "Sinóptica Principal", "TECNOLOGIA": "Automática con Telemetría"}}, {"type": "Feature", "id": 56, "geometry": {"type": "Point", "coordinates": [-67.49122222012932, 6.182436110338244]}, "properties": {"ELEV": 57, "COD_DPTO": 99, "COD_MUNICI": 99001, "DEPARTAMEN": "Vichada", "OBJECTID": 56, "CODIGO": "38015030", "ESTACION": "Aeropuerto Puerto Carreño", "LON": -67.49122222000001, "LAT": 6.18243611, "MUNICIPIO": "Puerto Carreño", "DATO": 31.1, "CATEGORIA": "Sinóptica Principal", "TECNOLOGIA": "Convencional"}}, {"type": "Feature", "id": 57, "geometry": {"type": "Point", "coordinates": [-77.53605555981619, 3.077138889348305]}, "properties": {"ELEV": 100, "COD_DPTO": 19, "COD_MUNICI": 19418, "DEPARTAMEN": "Cauca", "OBJECTID": 57, "CODIGO": "53070050", "ESTACION": "Noanamito", "LON": -77.53605556, "LAT": 3.077138889, "MUNICIPIO": "López De Micay", "DATO": 31, "CATEGORIA": "Pluviométrica", "TECNOLOGIA": "Convencional"}}, {"type": "Feature", "id": 58, "geometry": {"type": "Point", "coordinates": [-76.10052778043269, 4.418666666833246]}, "properties": {"ELEV": 933, "COD_DPTO": 76, "COD_MUNICI": 76622, "DEPARTAMEN": "Valle Del Cauca", "OBJECTID": 58, "CODIGO": "26110230", "ESTACION": "Isugu", "LON": -76.10052778, "LAT": 4.418666667, "MUNICIPIO": "Roldanillo", "DATO": 31, "CATEGORIA": "Pluviográfica", "TECNOLOGIA": "Convencional"}}, {"type": "Feature", "id": 59, "geometry": {"type": "Point", "coordinates": [-73.34166666958112, 6.151388889086036]}, "properties": {"ELEV": 1502, "COD_DPTO": 68, "COD_MUNICI": 68770, "DEPARTAMEN": "Santander", "OBJECTID": 59, "CODIGO": "24010650", "ESTACION": "Olival", "LON": -73.34166667, "LAT": 6.151388889, "MUNICIPIO": "Suaita", "DATO": 30.3, "CATEGORIA": "Pluviométrica", "TECNOLOGIA": "Convencional"}}, {"type": "Feature", "id": 60, "geometry": {"type": "Point", "coordinates": [-70.23920400016442, 1.2597019998474366]}, "properties": {"ELEV": 168, "COD_DPTO": 97, "COD_MUNICI": 97001, "DEPARTAMEN": "Vaupés", "OBJECTID": 60, "CODIGO": "42075010", "ESTACION": "Mitu", "LON": -70.239204, "LAT": 1.259702, "MUNICIPIO": "Mitú", "DATO": 30, "CATEGORIA": "Climática Principal", "TECNOLOGIA": "Convencional"}}, {"type": "Feature", "id": 61, "geometry": {"type": "Point", "coordinates": [-73.44916666990588, 5.022277778196951]}, "properties": {"ELEV": 1930, "COD_DPTO": 15, "COD_MUNICI": 15778, "DEPARTAMEN": "Boyacá", "OBJECTID": 61, "CODIGO": "35075020", "ESTACION": "Sutatenza", "LON": -73.44916667, "LAT": 5.022277778, "MUNICIPIO": "Sutatenza", "DATO": 29.3, "CATEGORIA": "Climática Principal", "TECNOLOGIA": "Convencional"}}, {"type": "Feature", "id": 62, "geometry": {"type": "Point", "coordinates": [-76.52000000039965, 8.199997221894307]}, "properties": {"ELEV": 136, "COD_DPTO": 5, "COD_MUNICI": 5837, "DEPARTAMEN": "Antioquia", "OBJECTID": 62, "CODIGO": "12020010", "ESTACION": "Pueblo Bello", "LON": -76.52, "LAT": 8.199997222, "MUNICIPIO": "Turbo", "DATO": 29, "CATEGORIA": "Pluviométrica", "TECNOLOGIA": "Convencional"}}, {"type": "Feature", "id": 63, "geometry": {"type": "Point", "coordinates": [-73.37986110980233, 4.970833333091889]}, "properties": {"ELEV": 1954, "COD_DPTO": 15, "COD_MUNICI": 15022, "DEPARTAMEN": "Boyacá", "OBJECTID": 63, "CODIGO": "35070260", "ESTACION": "Almeida", "LON": -73.37986111, "LAT": 4.970833333, "MUNICIPIO": "Almeida", "DATO": 29, "CATEGORIA": "Pluviográfica", "TECNOLOGIA": "Convencional"}}, {"type": "Feature", "id": 64, "geometry": {"type": "Point", "coordinates": [-73.61757778029028, 4.161919439830342]}, "properties": {"ELEV": 422, "COD_DPTO": 50, "COD_MUNICI": 50001, "DEPARTAMEN": "Meta", "OBJECTID": 64, "CODIGO": "35035020", "ESTACION": "Aeropuerto Vanguardia", "LON": -73.61757778, "LAT": 4.16191944, "MUNICIPIO": "Villavicencio", "DATO": 27.4, "CATEGORIA": "Sinóptica Principal", "TECNOLOGIA": "Convencional"}}, {"type": "Feature", "id": 65, "geometry": {"type": "Point", "coordinates": [-74.82520199997231, 9.58823400039887]}, "properties": {"ELEV": 20, "COD_DPTO": 13, "COD_MUNICI": 13212, "DEPARTAMEN": "Bolívar", "OBJECTID": 65, "CODIGO": "25020960", "ESTACION": "Córdoba", "LON": -74.825202, "LAT": 9.588234, "MUNICIPIO": "Córdoba", "DATO": 27, "CATEGORIA": "Pluviométrica", "TECNOLOGIA": "Convencional"}}, {"type": "Feature", "id": 66, "geometry": {"type": "Point", "coordinates": [-69.812305999822, 4.494805999797109]}, "properties": {"ELEV": 158, "COD_DPTO": 99, "COD_MUNICI": 99773, "DEPARTAMEN": "Vichada", "OBJECTID": 66, "CODIGO": "33055010", "ESTACION": "Cumaribo", "LON": -69.812306, "LAT": 4.494806, "MUNICIPIO": "Cumaribo", "DATO": 27, "CATEGORIA": "Climática Ordinaria", "TECNOLOGIA": "Convencional"}}, {"type": "Feature", "id": 67, "geometry": {"type": "Point", "coordinates": [-72.6647222197546, 7.139444444205765]}, "properties": {"ELEV": 2410, "COD_DPTO": 54, "COD_MUNICI": 54174, "DEPARTAMEN": "Norte De Santander", "OBJECTID": 67, "CODIGO": "37010020", "ESTACION": "Chitaga", "LON": -72.66472222, "LAT": 7.139444444, "MUNICIPIO": "Chitagá", "DATO": 26.5, "CATEGORIA": "Pluviométrica", "TECNOLOGIA": "Convencional"}}, {"type": "Feature", "id": 68, "geometry": {"type": "Point", "coordinates": [-73.20361111006463, 5.358416667095582]}, "properties": {"ELEV": 2120, "COD_DPTO": 15, "COD_MUNICI": 15621, "DEPARTAMEN": "Boyacá", "OBJECTID": 68, "CODIGO": "35085020", "ESTACION": "Rondon", "LON": -73.20361111, "LAT": 5.358416667, "MUNICIPIO": "Rondón", "DATO": 26.5, "CATEGORIA": "Climática Ordinaria", "TECNOLOGIA": "Convencional"}}, {"type": "Feature", "id": 69, "geometry": {"type": "Point", "coordinates": [-75.85111110998969, 0.13286111055185756]}, "properties": {"ELEV": 190, "COD_DPTO": 86, "COD_MUNICI": 86573, "DEPARTAMEN": "Putumayo", "OBJECTID": 69, "CODIGO": "47035020", "ESTACION": "Puerto Ospina", "LON": -75.85111111, "LAT": 0.132861111, "MUNICIPIO": "Puerto Leguízamo", "DATO": 26.3, "CATEGORIA": "Climática Ordinaria", "TECNOLOGIA": "Convencional"}}, {"type": "Feature", "id": 70, "geometry": {"type": "Point", "coordinates": [-72.58388888976043, 8.07733333256732]}, "properties": {"ELEV": 150, "COD_DPTO": 54, "COD_MUNICI": 54001, "DEPARTAMEN": "Norte De Santander", "OBJECTID": 70, "CODIGO": "16020140", "ESTACION": "Bocatoma Rio Zulia", "LON": -72.58388889, "LAT": 8.077333333, "MUNICIPIO": "San José De Cúcuta", "DATO": 24.9, "CATEGORIA": "Pluviométrica", "TECNOLOGIA": "Convencional"}}, {"type": "Feature", "id": 71, "geometry": {"type": "Point", "coordinates": [-73.64348979981435, 4.142680999628453]}, "properties": {"ELEV": 500, "COD_DPTO": 50, "COD_MUNICI": 50001, "DEPARTAMEN": "Meta", "OBJECTID": 71, "CODIGO": "35030380", "ESTACION": "Ideam V/Cio", "LON": -73.6434898, "LAT": 4.142681, "MUNICIPIO": "Villavicencio", "DATO": 23.7, "CATEGORIA": "Pluviométrica", "TECNOLOGIA": "Convencional"}}, {"type": "Feature", "id": 72, "geometry": {"type": "Point", "coordinates": [-74.76620000042965, 9.041322000010325]}, "properties": {"ELEV": 10, "COD_DPTO": 13, "COD_MUNICI": 13430, "DEPARTAMEN": "Bolívar", "OBJECTID": 72, "CODIGO": "25020950", "ESTACION": "San Antonio Alerta", "LON": -74.7662, "LAT": 9.041322, "MUNICIPIO": "Magangué", "DATO": 23, "CATEGORIA": "Pluviométrica", "TECNOLOGIA": "Convencional"}}, {"type": "Feature", "id": 73, "geometry": {"type": "Point", "coordinates": [-69.94908200033399, 0.9745360001363679]}, "properties": {"ELEV": 167, "COD_DPTO": 97, "COD_MUNICI": 97001, "DEPARTAMEN": "Vaupés", "OBJECTID": 73, "CODIGO": "420700304r", "ESTACION": "Villafatima", "LON": -69.949082, "LAT": 0.974536, "MUNICIPIO": "Mitú", "DATO": 23, "CATEGORIA": " ", "TECNOLOGIA": " "}}, {"type": "Feature", "id": 74, "geometry": {"type": "Point", "coordinates": [-72.50055555959136, 7.298055555919234]}, "properties": {"ELEV": 1560, "COD_DPTO": 54, "COD_MUNICI": 54377, "DEPARTAMEN": "Norte De Santander", "OBJECTID": 74, "CODIGO": "37010010", "ESTACION": "Labateca", "LON": -72.50055556, "LAT": 7.298055556, "MUNICIPIO": "Labateca", "DATO": 22, "CATEGORIA": "Pluviométrica", "TECNOLOGIA": "Convencional"}}, {"type": "Feature", "id": 75, "geometry": {"type": "Point", "coordinates": [-72.71722221982952, 5.407277778146977]}, "properties": {"ELEV": 1550, "COD_DPTO": 15, "COD_MUNICI": 15518, "DEPARTAMEN": "Boyacá", "OBJECTID": 75, "CODIGO": "35195050", "ESTACION": "Corinto", "LON": -72.71722222, "LAT": 5.407277778, "MUNICIPIO": "Pajarito", "DATO": 21.7, "CATEGORIA": "Climática Ordinaria", "TECNOLOGIA": "Convencional"}}, {"type": "Feature", "id": 76, "geometry": {"type": "Point", "coordinates": [-74.77627777989557, -0.18061111081408399]}, "properties": {"ELEV": 147, "COD_DPTO": 86, "COD_MUNICI": 86573, "DEPARTAMEN": "Putumayo", "OBJECTID": 76, "CODIGO": "47045010", "ESTACION": "Puerto Leguizamo", "LON": -74.77627778, "LAT": -0.180611111, "MUNICIPIO": "Puerto Leguízamo", "DATO": 21.5, "CATEGORIA": "Climática Ordinaria", "TECNOLOGIA": "Convencional"}}, {"type": "Feature", "id": 77, "geometry": {"type": "Point", "coordinates": [-73.39563889042239, 5.139250000387278]}, "properties": {"ELEV": 2160, "COD_DPTO": 15, "COD_MUNICI": 15511, "DEPARTAMEN": "Boyacá", "OBJECTID": 77, "CODIGO": "35070210", "ESTACION": "Pachavita", "LON": -73.39563889, "LAT": 5.13925, "MUNICIPIO": "Pachavita", "DATO": 21, "CATEGORIA": "Pluviométrica", "TECNOLOGIA": "Convencional"}}, {"type": "Feature", "id": 78, "geometry": {"type": "Point", "coordinates": [-73.36852777963327, 5.078861111351273]}, "properties": {"ELEV": 1700, "COD_DPTO": 15, "COD_MUNICI": 15299, "DEPARTAMEN": "Boyacá", "OBJECTID": 78, "CODIGO": "35070080", "ESTACION": "Garagoa", "LON": -73.36852778, "LAT": 5.078861111, "MUNICIPIO": "Garagoa", "DATO": 20.8, "CATEGORIA": "Pluviográfica", "TECNOLOGIA": "Convencional"}}, {"type": "Feature", "id": 79, "geometry": {"type": "Point", "coordinates": [-72.38191666971852, -0.6163611110763441]}, "properties": {"ELEV": 150, "COD_DPTO": 18, "COD_MUNICI": 18756, "DEPARTAMEN": "Caquetá", "OBJECTID": 79, "CODIGO": "44135010", "ESTACION": "Araracuara", "LON": -72.38191667, "LAT": -0.616361111, "MUNICIPIO": "Solano", "DATO": 20.3, "CATEGORIA": "Climática Principal", "TECNOLOGIA": "Convencional"}}, {"type": "Feature", "id": 80, "geometry": {"type": "Point", "coordinates": [-75.39333332956949, 9.117777778321852]}, "properties": {"ELEV": 125, "COD_DPTO": 23, "COD_MUNICI": 23182, "DEPARTAMEN": "Córdoba", "OBJECTID": 80, "CODIGO": "25020470", "ESTACION": "Chinu - Aut", "LON": -75.39333333, "LAT": 9.117777778, "MUNICIPIO": "Chinú", "DATO": 20.2, "CATEGORIA": "Pluviométrica", "TECNOLOGIA": "Automática con Telemetría, Convencional"}}, {"type": "Feature", "id": 81, "geometry": {"type": "Point", "coordinates": [-73.3642499996377, 5.164861111251355]}, "properties": {"ELEV": 1900, "COD_DPTO": 15, "COD_MUNICI": 15172, "DEPARTAMEN": "Boyacá", "OBJECTID": 81, "CODIGO": "35070070", "ESTACION": "Chinavita", "LON": -73.36425, "LAT": 5.164861111, "MUNICIPIO": "Chinavita", "DATO": 18.4, "CATEGORIA": "Pluviométrica", "TECNOLOGIA": "Convencional"}}, {"type": "Feature", "id": 82, "geometry": {"type": "Point", "coordinates": [-72.90288889031001, 5.204388889036068]}, "properties": {"ELEV": 180, "COD_DPTO": 85, "COD_MUNICI": 85015, "DEPARTAMEN": "Casanare", "OBJECTID": 82, "CODIGO": "35190030", "ESTACION": "Chameza", "LON": -72.90288889, "LAT": 5.204388889, "MUNICIPIO": "Chámeza", "DATO": 18.1, "CATEGORIA": "Pluviográfica", "TECNOLOGIA": "Convencional"}}, {"type": "Feature", "id": 83, "geometry": {"type": "Point", "coordinates": [-72.30027778009543, 7.098888888811246]}, "properties": {"ELEV": 1660, "COD_DPTO": 54, "COD_MUNICI": 54820, "DEPARTAMEN": "Norte De Santander", "OBJECTID": 83, "CODIGO": "37020030", "ESTACION": "Campo Hermoso", "LON": -72.30027778, "LAT": 7.098888889, "MUNICIPIO": "Toledo", "DATO": 18, "CATEGORIA": "Pluviométrica", "TECNOLOGIA": "Convencional"}}, {"type": "Feature", "id": 84, "geometry": {"type": "Point", "coordinates": [-72.95038599961413, 4.099682999770664]}, "properties": {"ELEV": 180, "COD_DPTO": 50, "COD_MUNICI": 50573, "DEPARTAMEN": "Meta", "OBJECTID": 84, "CODIGO": "35010010", "ESTACION": "Puerto Lopez", "LON": -72.950386, "LAT": 4.099683, "MUNICIPIO": "Puerto López", "DATO": 17, "CATEGORIA": "Pluviométrica", "TECNOLOGIA": "Convencional"}}, {"type": "Feature", "id": 85, "geometry": {"type": "Point", "coordinates": [-76.1336111099647, 6.763333332567299]}, "properties": {"ELEV": 1429, "COD_DPTO": 5, "COD_MUNICI": 5284, "DEPARTAMEN": "Antioquia", "OBJECTID": 85, "CODIGO": "11110010", "ESTACION": "Normal Santa Teresa Aut", "LON": -76.13361111, "LAT": 6.763333333, "MUNICIPIO": "Frontino", "DATO": 17, "CATEGORIA": "Climática Ordinaria", "TECNOLOGIA": "Automática con Telemetría, Convencional"}}, {"type": "Feature", "id": 86, "geometry": {"type": "Point", "coordinates": [-76.58419443992142, 1.2805000002748557]}, "properties": {"ELEV": 500, "COD_DPTO": 86, "COD_MUNICI": 86001, "DEPARTAMEN": "Putumayo", "OBJECTID": 86, "CODIGO": "44010090", "ESTACION": "Condagua", "LON": -76.58419444, "LAT": 1.2805, "MUNICIPIO": "Mocoa", "DATO": 16, "CATEGORIA": "Pluviométrica", "TECNOLOGIA": "Convencional"}}, {"type": "Feature", "id": 87, "geometry": {"type": "Point", "coordinates": [-76.36083332979427, 1.8643888892358973]}, "properties": {"ELEV": 1940, "COD_DPTO": 41, "COD_MUNICI": 41668, "DEPARTAMEN": "Huila", "OBJECTID": 87, "CODIGO": "21010140", "ESTACION": "Candela La", "LON": -76.36083333, "LAT": 1.864388889, "MUNICIPIO": "San Agustín", "DATO": 16, "CATEGORIA": "Pluviométrica", "TECNOLOGIA": "Convencional"}}, {"type": "Feature", "id": 88, "geometry": {"type": "Point", "coordinates": [-74.38855555999106, 9.801750000062498]}, "properties": {"ELEV": 110, "COD_DPTO": 47, "COD_MUNICI": 47460, "DEPARTAMEN": "Magdalena", "OBJECTID": 88, "CODIGO": "25021630", "ESTACION": "Nueva Granada", "LON": -74.38855556, "LAT": 9.80175, "MUNICIPIO": "Nueva Granada", "DATO": 16, "CATEGORIA": "Pluviométrica", "TECNOLOGIA": "Convencional"}}, {"type": "Feature", "id": 89, "geometry": {"type": "Point", "coordinates": [-74.70433900034453, 8.878102999553846]}, "properties": {"ELEV": 20, "COD_DPTO": 70, "COD_MUNICI": 70771, "DEPARTAMEN": "Sucre", "OBJECTID": 89, "CODIGO": "25021370", "ESTACION": "San Luis", "LON": -74.704339, "LAT": 8.878103, "MUNICIPIO": "Sucre", "DATO": 16, "CATEGORIA": "Pluviométrica", "TECNOLOGIA": "Convencional"}}, {"type": "Feature", "id": 90, "geometry": {"type": "Point", "coordinates": [-74.38911110988977, 5.3493611110264965]}, "properties": {"ELEV": 1462, "COD_DPTO": 25, "COD_MUNICI": 25394, "DEPARTAMEN": "Cundinamarca", "OBJECTID": 90, "CODIGO": "23060170", "ESTACION": "La Palma", "LON": -74.38911111, "LAT": 5.349361111, "MUNICIPIO": "La Palma", "DATO": 15.7, "CATEGORIA": "Pluviométrica", "TECNOLOGIA": "Convencional"}}, {"type": "Feature", "id": 91, "geometry": {"type": "Point", "coordinates": [-76.84499999975014, 1.1454166668457333]}, "properties": {"ELEV": 3000, "COD_DPTO": 86, "COD_MUNICI": 86755, "DEPARTAMEN": "Putumayo", "OBJECTID": 91, "CODIGO": "47010180", "ESTACION": "Torre Tv San Fco", "LON": -76.845, "LAT": 1.145416667, "MUNICIPIO": "San Francisco", "DATO": 15.6, "CATEGORIA": "Pluviométrica", "TECNOLOGIA": "Convencional"}}, {"type": "Feature", "id": 92, "geometry": {"type": "Point", "coordinates": [-73.71294299981957, 4.354388000405947]}, "properties": {"ELEV": 1867, "COD_DPTO": 50, "COD_MUNICI": 50245, "DEPARTAMEN": "Meta", "OBJECTID": 92, "CODIGO": "35030010", "ESTACION": "El Calvario", "LON": -73.712943, "LAT": 4.354388, "MUNICIPIO": "El Calvario", "DATO": 15, "CATEGORIA": "Pluviográfica", "TECNOLOGIA": "Convencional"}}, {"type": "Feature", "id": 93, "geometry": {"type": "Point", "coordinates": [-77.24897221989198, 2.845277778446757]}, "properties": {"ELEV": 80, "COD_DPTO": 19, "COD_MUNICI": 19418, "DEPARTAMEN": "Cauca", "OBJECTID": 93, "CODIGO": "53070030", "ESTACION": "Puerto Lopez", "LON": -77.24897222, "LAT": 2.845277778, "MUNICIPIO": "López De Micay", "DATO": 15, "CATEGORIA": "Pluviométrica", "TECNOLOGIA": "Convencional"}}, {"type": "Feature", "id": 94, "geometry": {"type": "Point", "coordinates": [-75.82513888984784, 8.825833330244052]}, "properties": {"ELEV": 20, "COD_DPTO": 23, "COD_MUNICI": 23001, "DEPARTAMEN": "Córdoba", "OBJECTID": 94, "CODIGO": "13035501", "ESTACION": "Aeropuerto Los Garzones", "LON": -75.82513889, "LAT": 8.825833330000002, "MUNICIPIO": "Montería", "DATO": 14.7, "CATEGORIA": "Sinóptica Secundaria", "TECNOLOGIA": "Automática con Telemetría"}}, {"type": "Feature", "id": 95, "geometry": {"type": "Point", "coordinates": [-72.44194443958418, 7.226666666833239]}, "properties": {"ELEV": 1275, "COD_DPTO": 54, "COD_MUNICI": 54820, "DEPARTAMEN": "Norte De Santander", "OBJECTID": 95, "CODIGO": "37020020", "ESTACION": "San Bernardo", "LON": -72.44194444, "LAT": 7.226666667, "MUNICIPIO": "Toledo", "DATO": 14.5, "CATEGORIA": "Pluviométrica", "TECNOLOGIA": "Convencional"}}, {"type": "Feature", "id": 96, "geometry": {"type": "Point", "coordinates": [-74.9766380002435, 10.034607000412791]}, "properties": {"ELEV": 75, "COD_DPTO": 13, "COD_MUNICI": 13248, "DEPARTAMEN": "Bolívar", "OBJECTID": 96, "CODIGO": "29015000", "ESTACION": "El Guamo - Aut", "LON": -74.976638, "LAT": 10.034607, "MUNICIPIO": "El Guamo", "DATO": 14.4, "CATEGORIA": "Climática Ordinaria", "TECNOLOGIA": "Automática con Telemetría, Convencional"}}, {"type": "Feature", "id": 97, "geometry": {"type": "Point", "coordinates": [-73.44413889039743, 5.760583332754663]}, "properties": {"ELEV": 2600, "COD_DPTO": 15, "COD_MUNICI": 15051, "DEPARTAMEN": "Boyacá", "OBJECTID": 97, "CODIGO": "24010630", "ESTACION": "Arcabuco", "LON": -73.44413889, "LAT": 5.760583333, "MUNICIPIO": "Arcabuco", "DATO": 14.2, "CATEGORIA": "Pluviométrica", "TECNOLOGIA": "Convencional"}}, {"type": "Feature", "id": 98, "geometry": {"type": "Point", "coordinates": [-72.48388888996027, 7.576666667033123]}, "properties": {"ELEV": 1550, "COD_DPTO": 54, "COD_MUNICI": 54599, "DEPARTAMEN": "Norte De Santander", "OBJECTID": 98, "CODIGO": "16015100", "ESTACION": "Ragonvalia", "LON": -72.48388889, "LAT": 7.576666667, "MUNICIPIO": "Ragonvalia", "DATO": 14, "CATEGORIA": "Climática Principal", "TECNOLOGIA": "Convencional"}}, {"type": "Feature", "id": 99, "geometry": {"type": "Point", "coordinates": [-73.18452778043269, 7.121472219767156]}, "properties": {"ELEV": 1189, "COD_DPTO": 68, "COD_MUNICI": 68406, "DEPARTAMEN": "Santander", "OBJECTID": 99, "CODIGO": "23195502", "ESTACION": "Aeropuerto Palonegro", "LON": -73.18452778, "LAT": 7.12147222, "MUNICIPIO": "Lebrija", "DATO": 13.9, "CATEGORIA": "Sinóptica Principal", "TECNOLOGIA": "Automática con Telemetría, Convencional"}}, {"type": "Feature", "id": 100, "geometry": {"type": "Point", "coordinates": [-76.6808333296944, 1.2024999996752967]}, "properties": {"ELEV": 1400, "COD_DPTO": 86, "COD_MUNICI": 86001, "DEPARTAMEN": "Putumayo", "OBJECTID": 100, "CODIGO": "44010030", "ESTACION": "Campucana", "LON": -76.68083333, "LAT": 1.2025, "MUNICIPIO": "Mocoa", "DATO": 13.7, "CATEGORIA": "Pluviométrica", "TECNOLOGIA": "Convencional"}}, {"type": "Feature", "id": 101, "geometry": {"type": "Point", "coordinates": [-76.29497221989197, 1.8884722219155492]}, "properties": {"ELEV": 1800, "COD_DPTO": 41, "COD_MUNICI": 41668, "DEPARTAMEN": "Huila", "OBJECTID": 101, "CODIGO": "21015030", "ESTACION": "Parque Arqueologico - Aut", "LON": -76.29497222, "LAT": 1.888472222, "MUNICIPIO": "San Agustín", "DATO": 13.5, "CATEGORIA": "Pluviométrica", "TECNOLOGIA": "Automática con Telemetría, Convencional"}}, {"type": "Feature", "id": 102, "geometry": {"type": "Point", "coordinates": [-73.60227777979566, 5.710666666733346]}, "properties": {"ELEV": 2300, "COD_DPTO": 15, "COD_MUNICI": 15696, "DEPARTAMEN": "Boyacá", "OBJECTID": 102, "CODIGO": "24015090", "ESTACION": "Institucion Agricola Santa Sofia", "LON": -73.60227778, "LAT": 5.710666667, "MUNICIPIO": "Santa Sofía", "DATO": 13.5, "CATEGORIA": "Climática Ordinaria", "TECNOLOGIA": "Convencional"}}, {"type": "Feature", "id": 103, "geometry": {"type": "Point", "coordinates": [-73.41538889018511, 6.237166667407848]}, "properties": {"ELEV": 1400, "COD_DPTO": 68, "COD_MUNICI": 68320, "DEPARTAMEN": "Santander", "OBJECTID": 103, "CODIGO": "24015250", "ESTACION": "Laja La", "LON": -73.41538889, "LAT": 6.237166667, "MUNICIPIO": "Guadalupe", "DATO": 13, "CATEGORIA": "Climática Ordinaria", "TECNOLOGIA": "Convencional"}}, {"type": "Feature", "id": 104, "geometry": {"type": "Point", "coordinates": [-75.70447222031669, 1.1952499998876078]}, "properties": {"ELEV": 270, "COD_DPTO": 18, "COD_MUNICI": 18860, "DEPARTAMEN": "Caquetá", "OBJECTID": 104, "CODIGO": "44045020", "ESTACION": "Valparaiso", "LON": -75.70447222, "LAT": 1.19525, "MUNICIPIO": "Valparaíso", "DATO": 13, "CATEGORIA": "Climática Ordinaria", "TECNOLOGIA": "Convencional"}}, {"type": "Feature", "id": 105, "geometry": {"type": "Point", "coordinates": [-76.81708333023147, 1.2021111112388212]}, "properties": {"ELEV": 2300, "COD_DPTO": 86, "COD_MUNICI": 86755, "DEPARTAMEN": "Putumayo", "OBJECTID": 105, "CODIGO": "44010040", "ESTACION": "Minchoy", "LON": -76.81708333, "LAT": 1.202111111, "MUNICIPIO": "San Francisco", "DATO": 12.4, "CATEGORIA": "Pluviográfica", "TECNOLOGIA": "Convencional"}}, {"type": "Feature", "id": 106, "geometry": {"type": "Point", "coordinates": [-74.40816667025558, 5.355944444280738]}, "properties": {"ELEV": 1659, "COD_DPTO": 25, "COD_MUNICI": 25394, "DEPARTAMEN": "Cundinamarca", "OBJECTID": 106, "CODIGO": "23060390", "ESTACION": "Los Tiestos", "LON": -74.40816667, "LAT": 5.355944444, "MUNICIPIO": "La Palma", "DATO": 12.3, "CATEGORIA": " ", "TECNOLOGIA": " "}}, {"type": "Feature", "id": 107, "geometry": {"type": "Point", "coordinates": [-74.60805555591912, 5.069444444205772]}, "properties": {"ELEV": 985, "COD_DPTO": 25, "COD_MUNICI": 25320, "DEPARTAMEN": "Cundinamarca", "OBJECTID": 107, "CODIGO": "23060140", "ESTACION": "El Tuscolo", "LON": -74.608055556, "LAT": 5.069444444, "MUNICIPIO": "Guaduas", "DATO": 11.6, "CATEGORIA": "Pluviométrica", "TECNOLOGIA": "Convencional"}}, {"type": "Feature", "id": 108, "geometry": {"type": "Point", "coordinates": [-73.39594443958418, 5.315277777647395]}, "properties": {"ELEV": 2115, "COD_DPTO": 15, "COD_MUNICI": 15804, "DEPARTAMEN": "Boyacá", "OBJECTID": 108, "CODIGO": "35070040", "ESTACION": "Tibana", "LON": -73.39594444, "LAT": 5.315277778, "MUNICIPIO": "Tibaná", "DATO": 11.5, "CATEGORIA": "Pluviométrica", "TECNOLOGIA": "Convencional"}}, {"type": "Feature", "id": 109, "geometry": {"type": "Point", "coordinates": [-74.15463889027251, 5.371388889385798]}, "properties": {"ELEV": 138, "COD_DPTO": 25, "COD_MUNICI": 25518, "DEPARTAMEN": "Cundinamarca", "OBJECTID": 109, "CODIGO": "23120240", "ESTACION": "Paime", "LON": -74.15463889, "LAT": 5.371388889, "MUNICIPIO": "Paime", "DATO": 11.2, "CATEGORIA": "Pluviométrica", "TECNOLOGIA": "Convencional"}}, {"type": "Feature", "id": 110, "geometry": {"type": "Point", "coordinates": [-72.16677777957085, 5.818583332854587]}, "properties": {"ELEV": 117, "COD_DPTO": 85, "COD_MUNICI": 85400, "DEPARTAMEN": "Casanare", "OBJECTID": 110, "CODIGO": "35235050", "ESTACION": "Tamara - Aut", "LON": -72.16677778, "LAT": 5.818583333, "MUNICIPIO": "Támara", "DATO": 11, "CATEGORIA": "Climática Ordinaria", "TECNOLOGIA": "Automática con Telemetría, Convencional"}}, {"type": "Feature", "id": 111, "geometry": {"type": "Point", "coordinates": [-76.21491667036798, 1.9315833331044132]}, "properties": {"ELEV": 1720, "COD_DPTO": 41, "COD_MUNICI": 41359, "DEPARTAMEN": "Huila", "OBJECTID": 111, "CODIGO": "21010050", "ESTACION": "San Jose De Isnos", "LON": -76.21491667, "LAT": 1.931583333, "MUNICIPIO": "Isnos", "DATO": 11, "CATEGORIA": "Pluviométrica", "TECNOLOGIA": "Convencional"}}, {"type": "Feature", "id": 112, "geometry": {"type": "Point", "coordinates": [-78.12233332961944, 1.3402777783967963]}, "properties": {"ELEV": 950, "COD_DPTO": 52, "COD_MUNICI": 52079, "DEPARTAMEN": "Nariño", "OBJECTID": 112, "CODIGO": "51020010", "ESTACION": "Junin", "LON": -78.12233333, "LAT": 1.340277778, "MUNICIPIO": "Barbacoas", "DATO": 11, "CATEGORIA": "Pluviométrica", "TECNOLOGIA": "Convencional"}}, {"type": "Feature", "id": 113, "geometry": {"type": "Point", "coordinates": [-73.99588500039243, 4.5870590002726885]}, "properties": {"ELEV": 3195, "COD_DPTO": 25, "COD_MUNICI": 25181, "DEPARTAMEN": "Cundinamarca", "OBJECTID": 113, "CODIGO": "35025060", "ESTACION": "La Bolsa", "LON": -73.995885, "LAT": 4.587059, "MUNICIPIO": "Choachí", "DATO": 11, "CATEGORIA": "Climática Principal", "TECNOLOGIA": "Automática con Telemetría, Convencional"}}, {"type": "Feature", "id": 114, "geometry": {"type": "Point", "coordinates": [-76.00999999980013, 1.980000000099949]}, "properties": {"ELEV": 1046, "COD_DPTO": 41, "COD_MUNICI": 41244, "DEPARTAMEN": "Huila", "OBJECTID": 114, "CODIGO": "21020050", "ESTACION": "Puente Saladoblanc", "LON": -76.01, "LAT": 1.98, "MUNICIPIO": "Elías", "DATO": 11, "CATEGORIA": "Pluviométrica", "TECNOLOGIA": "Convencional"}}, {"type": "Feature", "id": 115, "geometry": {"type": "Point", "coordinates": [-73.92658332985673, 4.52291666657095]}, "properties": {"ELEV": 1950, "COD_DPTO": 25, "COD_MUNICI": 25181, "DEPARTAMEN": "Cundinamarca", "OBJECTID": 115, "CODIGO": "35020280", "ESTACION": "Choachi", "LON": -73.92658333, "LAT": 4.522916667, "MUNICIPIO": "Choachí", "DATO": 11, "CATEGORIA": "Pluviométrica", "TECNOLOGIA": "Convencional"}}, {"type": "Feature", "id": 116, "geometry": {"type": "Point", "coordinates": [-74.00269399962832, 4.253916999569924]}, "properties": {"ELEV": 2300, "COD_DPTO": 25, "COD_MUNICI": 25339, "DEPARTAMEN": "Cundinamarca", "OBJECTID": 116, "CODIGO": "35020300", "ESTACION": "Gutierrez", "LON": -74.002694, "LAT": 4.253917, "MUNICIPIO": "Gutiérrez", "DATO": 10.8, "CATEGORIA": "Climática Principal", "TECNOLOGIA": "Automática con Telemetría"}}, {"type": "Feature", "id": 117, "geometry": {"type": "Point", "coordinates": [-76.44136110972738, 0.9615555562439795]}, "properties": {"ELEV": 500, "COD_DPTO": 86, "COD_MUNICI": 86571, "DEPARTAMEN": "Putumayo", "OBJECTID": 117, "CODIGO": "44010080", "ESTACION": "Santa Lucia", "LON": -76.44136111, "LAT": 0.961555556, "MUNICIPIO": "Puerto Guzmán", "DATO": 10.4, "CATEGORIA": "Pluviométrica", "TECNOLOGIA": "Convencional"}}, {"type": "Feature", "id": 118, "geometry": {"type": "Point", "coordinates": [-75.14338889018512, 6.376250000037544]}, "properties": {"ELEV": 1712, "COD_DPTO": 5, "COD_MUNICI": 5021, "DEPARTAMEN": "Antioquia", "OBJECTID": 118, "CODIGO": "23085030", "ESTACION": "Alejandria", "LON": -75.14338889, "LAT": 6.37625, "MUNICIPIO": "Alejandría", "DATO": 10.4, "CATEGORIA": "Climática Ordinaria", "TECNOLOGIA": "Convencional"}}, {"type": "Feature", "id": 119, "geometry": {"type": "Point", "coordinates": [-72.68083332959446, 7.013888889160967]}, "properties": {"ELEV": 3320, "COD_DPTO": 54, "COD_MUNICI": 54174, "DEPARTAMEN": "Norte De Santander", "OBJECTID": 119, "CODIGO": "37010040", "ESTACION": "Presidente", "LON": -72.68083333, "LAT": 7.013888889, "MUNICIPIO": "Chitagá", "DATO": 10, "CATEGORIA": "Pluviométrica", "TECNOLOGIA": "Convencional"}}, {"type": "Feature", "id": 120, "geometry": {"type": "Point", "coordinates": [-73.97288888961054, 9.492944444430634]}, "properties": {"ELEV": 50, "COD_DPTO": 20, "COD_MUNICI": 20032, "DEPARTAMEN": "Cesar", "OBJECTID": 120, "CODIGO": "25020220", "ESTACION": "Astrea", "LON": -73.97288889, "LAT": 9.492944444, "MUNICIPIO": "Astrea", "DATO": 10, "CATEGORIA": "Pluviométrica", "TECNOLOGIA": "Convencional"}}, {"type": "Feature", "id": 121, "geometry": {"type": "Point", "coordinates": [-75.94222221967965, 1.813611110664283]}, "properties": {"ELEV": 1350, "COD_DPTO": 41, "COD_MUNICI": 41006, "DEPARTAMEN": "Huila", "OBJECTID": 121, "CODIGO": "21030080", "ESTACION": "Acevedo", "LON": -75.94222222, "LAT": 1.813611111, "MUNICIPIO": "Acevedo", "DATO": 10, "CATEGORIA": "Pluviométrica", "TECNOLOGIA": "Convencional"}}, {"type": "Feature", "id": 122, "geometry": {"type": "Point", "coordinates": [-76.88338888958555, 1.1789444440308898]}, "properties": {"ELEV": 2140, "COD_DPTO": 86, "COD_MUNICI": 86755, "DEPARTAMEN": "Putumayo", "OBJECTID": 122, "CODIGO": "47010090", "ESTACION": "San Francisco", "LON": -76.88338889, "LAT": 1.178944444, "MUNICIPIO": "San Francisco", "DATO": 10, "CATEGORIA": "Pluviométrica", "TECNOLOGIA": "Convencional"}}, {"type": "Feature", "id": 123, "geometry": {"type": "Point", "coordinates": [-73.81544443960917, 8.86038888863635]}, "properties": {"ELEV": 20, "COD_DPTO": 20, "COD_MUNICI": 20787, "DEPARTAMEN": "Cesar", "OBJECTID": 123, "CODIGO": "25020090", "ESTACION": "Tamalameque", "LON": -73.81544444, "LAT": 8.860388889, "MUNICIPIO": "Tamalameque", "DATO": 10, "CATEGORIA": "Pluviométrica", "TECNOLOGIA": "Convencional"}}, {"type": "Feature", "id": 124, "geometry": {"type": "Point", "coordinates": [-73.73433332971933, 5.0579722218406005]}, "properties": {"ELEV": 2800, "COD_DPTO": 25, "COD_MUNICI": 25183, "DEPARTAMEN": "Cundinamarca", "OBJECTID": 124, "CODIGO": "21200160", "ESTACION": "Panonia", "LON": -73.73433333, "LAT": 5.057972222, "MUNICIPIO": "Chocontá", "DATO": 9.7, "CATEGORIA": "Pluviométrica", "TECNOLOGIA": "Convencional"}}, {"type": "Feature", "id": 125, "geometry": {"type": "Point", "coordinates": [-73.76258333025646, 5.711583333104386]}, "properties": {"ELEV": 2726, "COD_DPTO": 15, "COD_MUNICI": 15632, "DEPARTAMEN": "Boyacá", "OBJECTID": 125, "CODIGO": "24010430", "ESTACION": "Esclusa Merchán", "LON": -73.76258333, "LAT": 5.711583333, "MUNICIPIO": "Saboyá", "DATO": 9.7, "CATEGORIA": " ", "TECNOLOGIA": " "}}, {"type": "Feature", "id": 126, "geometry": {"type": "Point", "coordinates": [-72.86861111001468, 7.186944443930997]}, "properties": {"ELEV": 3214, "COD_DPTO": 68, "COD_MUNICI": 68820, "DEPARTAMEN": "Santander", "OBJECTID": 126, "CODIGO": "37015020", "ESTACION": "Berlin", "LON": -72.86861111, "LAT": 7.186944444, "MUNICIPIO": "Tona", "DATO": 9.6, "CATEGORIA": "Climática Principal", "TECNOLOGIA": "Convencional"}}, {"type": "Feature", "id": 127, "geometry": {"type": "Point", "coordinates": [-72.59083332959443, 7.612777778271891]}, "properties": {"ELEV": 1350, "COD_DPTO": 54, "COD_MUNICI": 54172, "DEPARTAMEN": "Norte De Santander", "OBJECTID": 127, "CODIGO": "16010110", "ESTACION": "Manzanares", "LON": -72.59083333, "LAT": 7.612777778, "MUNICIPIO": "Chinácota", "DATO": 9.5, "CATEGORIA": "Pluviométrica", "TECNOLOGIA": "Convencional"}}, {"type": "Feature", "id": 128, "geometry": {"type": "Point", "coordinates": [-75.04472221985452, 9.163888889360805]}, "properties": {"ELEV": 20, "COD_DPTO": 70, "COD_MUNICI": 70678, "DEPARTAMEN": "Sucre", "OBJECTID": 128, "CODIGO": "25025380", "ESTACION": "San Benito - Aut", "LON": -75.04472222, "LAT": 9.163888889, "MUNICIPIO": "San Benito Abad", "DATO": 9.4, "CATEGORIA": "Climática Ordinaria", "TECNOLOGIA": "Automática con Telemetría, Convencional"}}, {"type": "Feature", "id": 129, "geometry": {"type": "Point", "coordinates": [-74.08822222237762, 4.516752778018315]}, "properties": {"ELEV": 3100, "COD_DPTO": 11, "COD_MUNICI": 11001, "DEPARTAMEN": "Bogotá, D.C.", "OBJECTID": 129, "CODIGO": "21206650", "ESTACION": "Colegio San Cayetano", "LON": -74.088222222, "LAT": 4.516752778, "MUNICIPIO": "Bogotá, D.C.", "DATO": 9.2, "CATEGORIA": "Climática Ordinaria", "TECNOLOGIA": "Convencional"}}, {"type": "Feature", "id": 130, "geometry": {"type": "Point", "coordinates": [-73.864452999906, 4.877952999731178]}, "properties": {"ELEV": 2750, "COD_DPTO": 25, "COD_MUNICI": 25322, "DEPARTAMEN": "Cundinamarca", "OBJECTID": 130, "CODIGO": "21205700", "ESTACION": "Guasca", "LON": -73.864453, "LAT": 4.877953, "MUNICIPIO": "Guasca", "DATO": 9.1, "CATEGORIA": "Climática Principal", "TECNOLOGIA": "Automática con Telemetría, Convencional"}}, {"type": "Feature", "id": 131, "geometry": {"type": "Point", "coordinates": [-74.58111111018957, 4.985388889185913]}, "properties": {"ELEV": 1200, "COD_DPTO": 25, "COD_MUNICI": 25168, "DEPARTAMEN": "Cundinamarca", "OBJECTID": 131, "CODIGO": "21230120", "ESTACION": "La Belleza", "LON": -74.58111111, "LAT": 4.985388889, "MUNICIPIO": "Chaguaní", "DATO": 9, "CATEGORIA": "Pluviométrica", "TECNOLOGIA": "Convencional"}}, {"type": "Feature", "id": 132, "geometry": {"type": "Point", "coordinates": [-75.75894443993394, 2.6523888891359775]}, "properties": {"ELEV": 1950, "COD_DPTO": 41, "COD_MUNICI": 41483, "DEPARTAMEN": "Huila", "OBJECTID": 132, "CODIGO": "21050170", "ESTACION": "Yarumal", "LON": -75.75894444, "LAT": 2.652388889, "MUNICIPIO": "Nátaga", "DATO": 9, "CATEGORIA": "Pluviométrica", "TECNOLOGIA": "Convencional"}}, {"type": "Feature", "id": 133, "geometry": {"type": "Point", "coordinates": [-75.45508332993171, 5.522444444055907]}, "properties": {"ELEV": 1821, "COD_DPTO": 17, "COD_MUNICI": 17513, "DEPARTAMEN": "Caldas", "OBJECTID": 133, "CODIGO": "26160090", "ESTACION": "Pacora Plaza Feria", "LON": -75.45508333, "LAT": 5.522444444, "MUNICIPIO": "Pácora", "DATO": 9, "CATEGORIA": "Pluviométrica", "TECNOLOGIA": "Convencional"}}, {"type": "Feature", "id": 134, "geometry": {"type": "Point", "coordinates": [-74.32035000025229, 4.648230000014564]}, "properties": {"ELEV": 2680, "COD_DPTO": 25, "COD_MUNICI": 25099, "DEPARTAMEN": "Cundinamarca", "OBJECTID": 134, "CODIGO": "21206280", "ESTACION": "Acapulco", "LON": -74.32035, "LAT": 4.64823, "MUNICIPIO": "Bojacá", "DATO": 8.8, "CATEGORIA": "Climática Principal", "TECNOLOGIA": "Automática con Telemetría, Convencional"}}, {"type": "Feature", "id": 135, "geometry": {"type": "Point", "coordinates": [-72.77277777987058, 7.534166666758324]}, "properties": {"ELEV": 1280, "COD_DPTO": 54, "COD_MUNICI": 54223, "DEPARTAMEN": "Norte De Santander", "OBJECTID": 135, "CODIGO": "16020080", "ESTACION": "Cucutilla", "LON": -72.77277778, "LAT": 7.534166667, "MUNICIPIO": "Cucutilla", "DATO": 8.5, "CATEGORIA": "Pluviométrica", "TECNOLOGIA": "Convencional"}}, {"type": "Feature", "id": 136, "geometry": {"type": "Point", "coordinates": [-72.97627777989561, 5.615500000424731]}, "properties": {"ELEV": 2470, "COD_DPTO": 15, "COD_MUNICI": 15362, "DEPARTAMEN": "Boyacá", "OBJECTID": 136, "CODIGO": "24030230", "ESTACION": "Iza", "LON": -72.97627778, "LAT": 5.6155, "MUNICIPIO": "Iza", "DATO": 8.5, "CATEGORIA": "Pluviométrica", "TECNOLOGIA": "Convencional"}}, {"type": "Feature", "id": 137, "geometry": {"type": "Point", "coordinates": [-73.6968611098523, 5.0791666668082485]}, "properties": {"ELEV": 2820, "COD_DPTO": 25, "COD_MUNICI": 25183, "DEPARTAMEN": "Cundinamarca", "OBJECTID": 137, "CODIGO": "21200620", "ESTACION": "Piscis", "LON": -73.69686111, "LAT": 5.079166667, "MUNICIPIO": "Chocontá", "DATO": 8.3, "CATEGORIA": "Pluviométrica", "TECNOLOGIA": "Convencional"}}, {"type": "Feature", "id": 138, "geometry": {"type": "Point", "coordinates": [-73.33297222009185, 5.399527777784783]}, "properties": {"ELEV": 2360, "COD_DPTO": 15, "COD_MUNICI": 15599, "DEPARTAMEN": "Boyacá", "OBJECTID": 138, "CODIGO": "35070010", "ESTACION": "Ramiriqui", "LON": -73.33297222, "LAT": 5.399527778, "MUNICIPIO": "Ramiriquí", "DATO": 8.2, "CATEGORIA": "Pluviográfica", "TECNOLOGIA": "Convencional"}}, {"type": "Feature", "id": 139, "geometry": {"type": "Point", "coordinates": [-76.16000000039963, 2.2400000002998013]}, "properties": {"ELEV": 2085, "COD_DPTO": 19, "COD_MUNICI": 19355, "DEPARTAMEN": "Cauca", "OBJECTID": 139, "CODIGO": "21055030", "ESTACION": "Santa Leticia", "LON": -76.16, "LAT": 2.24, "MUNICIPIO": "Inzá", "DATO": 8.2, "CATEGORIA": "Climática Ordinaria", "TECNOLOGIA": "Convencional"}}, {"type": "Feature", "id": 140, "geometry": {"type": "Point", "coordinates": [-76.07988888986034, 4.480916666870712]}, "properties": {"ELEV": 945, "COD_DPTO": 76, "COD_MUNICI": 76622, "DEPARTAMEN": "Valle Del Cauca", "OBJECTID": 140, "CODIGO": "26115080", "ESTACION": "Candelaria", "LON": -76.07988889, "LAT": 4.480916667, "MUNICIPIO": "Roldanillo", "DATO": 8, "CATEGORIA": "Meteorológica Especial", "TECNOLOGIA": "Convencional"}}, {"type": "Feature", "id": 141, "geometry": {"type": "Point", "coordinates": [-73.90461110981482, 4.849916667320372]}, "properties": {"ELEV": 2660, "COD_DPTO": 25, "COD_MUNICI": 25322, "DEPARTAMEN": "Cundinamarca", "OBJECTID": 141, "CODIGO": "21200800", "ESTACION": "San José", "LON": -73.90461111, "LAT": 4.849916667, "MUNICIPIO": "Guasca", "DATO": 8, "CATEGORIA": " ", "TECNOLOGIA": " "}}, {"type": "Feature", "id": 142, "geometry": {"type": "Point", "coordinates": [-76.05305555986615, 8.186666667432803]}, "properties": {"ELEV": 100, "COD_DPTO": 23, "COD_MUNICI": 23807, "DEPARTAMEN": "Córdoba", "OBJECTID": 142, "CODIGO": "13030010", "ESTACION": "Tierralta", "LON": -76.05305556, "LAT": 8.186666667, "MUNICIPIO": "Tierralta", "DATO": 8, "CATEGORIA": "Pluviométrica", "TECNOLOGIA": "Convencional"}}, {"type": "Feature", "id": 143, "geometry": {"type": "Point", "coordinates": [-75.35655555629387, 5.01783333314188]}, "properties": {"ELEV": 3341, "COD_DPTO": 17, "COD_MUNICI": 17001, "DEPARTAMEN": "Caldas", "OBJECTID": 143, "CODIGO": "26150160", "ESTACION": "La Esperanza", "LON": -75.356555556, "LAT": 5.017833333, "MUNICIPIO": "Manizales", "DATO": 8, "CATEGORIA": "Climática Principal", "TECNOLOGIA": "Convencional"}}, {"type": "Feature", "id": 144, "geometry": {"type": "Point", "coordinates": [-75.24902778040769, 2.939722221703221]}, "properties": {"ELEV": 516, "COD_DPTO": 41, "COD_MUNICI": 41001, "DEPARTAMEN": "Huila", "OBJECTID": 144, "CODIGO": "21110460", "ESTACION": "Neiva", "LON": -75.24902778, "LAT": 2.939722222, "MUNICIPIO": "Neiva", "DATO": 8, "CATEGORIA": "Pluviométrica", "TECNOLOGIA": "Convencional"}}, {"type": "Feature", "id": 145, "geometry": {"type": "Point", "coordinates": [-76.93025000013733, 1.1340555557193852]}, "properties": {"ELEV": 2100, "COD_DPTO": 86, "COD_MUNICI": 86755, "DEPARTAMEN": "Putumayo", "OBJECTID": 145, "CODIGO": "47010050", "ESTACION": "Chungacaspi", "LON": -76.93025, "LAT": 1.134055556, "MUNICIPIO": "San Francisco", "DATO": 7.8, "CATEGORIA": "Pluviométrica", "TECNOLOGIA": "Convencional"}}, {"type": "Feature", "id": 146, "geometry": {"type": "Point", "coordinates": [-75.10819443992142, 2.8511388886488476]}, "properties": {"ELEV": 1160, "COD_DPTO": 41, "COD_MUNICI": 41001, "DEPARTAMEN": "Huila", "OBJECTID": 146, "CODIGO": "21110400", "ESTACION": "Santa Helena", "LON": -75.10819444, "LAT": 2.851138889, "MUNICIPIO": "Neiva", "DATO": 7.8, "CATEGORIA": "Pluviográfica", "TECNOLOGIA": "Convencional"}}, {"type": "Feature", "id": 147, "geometry": {"type": "Point", "coordinates": [-73.59086111035191, 5.26374999956289]}, "properties": {"ELEV": 2745, "COD_DPTO": 25, "COD_MUNICI": 25873, "DEPARTAMEN": "Cundinamarca", "OBJECTID": 147, "CODIGO": "21201640", "ESTACION": "Granja Villapinzon", "LON": -73.59086111, "LAT": 5.26375, "MUNICIPIO": "Villapinzón", "DATO": 7.7, "CATEGORIA": "Pluviográfica", "TECNOLOGIA": "Convencional"}}, {"type": "Feature", "id": 148, "geometry": {"type": "Point", "coordinates": [-72.80305556006601, 8.076666666933193]}, "properties": {"ELEV": 320, "COD_DPTO": 54, "COD_MUNICI": 54720, "DEPARTAMEN": "Norte De Santander", "OBJECTID": 148, "CODIGO": "16035030", "ESTACION": "Sardinata", "LON": -72.80305556, "LAT": 8.076666667, "MUNICIPIO": "Sardinata", "DATO": 7.3, "CATEGORIA": "Pluviométrica", "TECNOLOGIA": "Automática con Telemetría, Convencional"}}, {"type": "Feature", "id": 149, "geometry": {"type": "Point", "coordinates": [-77.16147222006686, 1.1599444437811144]}, "properties": {"ELEV": 2830, "COD_DPTO": 52, "COD_MUNICI": 52001, "DEPARTAMEN": "Nariño", "OBJECTID": 149, "CODIGO": "47015100", "ESTACION": "El Encano - Aut", "LON": -77.16147222, "LAT": 1.159944444, "MUNICIPIO": "Pasto", "DATO": 7.2, "CATEGORIA": "Climática Principal", "TECNOLOGIA": "Automática con Telemetría"}}, {"type": "Feature", "id": 150, "geometry": {"type": "Point", "coordinates": [-74.523179999957, 4.579100000164942]}, "properties": {"ELEV": 765, "COD_DPTO": 25, "COD_MUNICI": 25035, "DEPARTAMEN": "Cundinamarca", "OBJECTID": 150, "CODIGO": "21205660", "ESTACION": "Mercedes", "LON": -74.52318, "LAT": 4.5791, "MUNICIPIO": "Anapoima", "DATO": 7.2, "CATEGORIA": "Climática Principal", "TECNOLOGIA": "Automática con Telemetría, Convencional"}}, {"type": "Feature", "id": 151, "geometry": {"type": "Point", "coordinates": [-76.65183332964443, 1.157333333266763]}, "properties": {"ELEV": 650, "COD_DPTO": 86, "COD_MUNICI": 86001, "DEPARTAMEN": "Putumayo", "OBJECTID": 151, "CODIGO": "44015060", "ESTACION": "Acueducto Mocoa - Aut", "LON": -76.65183333, "LAT": 1.157333333, "MUNICIPIO": "Mocoa", "DATO": 7.1, "CATEGORIA": "Climática Principal", "TECNOLOGIA": "Automática con Telemetría, Convencional"}}, {"type": "Feature", "id": 152, "geometry": {"type": "Point", "coordinates": [-73.5419444400838, 9.197194444068373]}, "properties": {"ELEV": 100, "COD_DPTO": 20, "COD_MUNICI": 20228, "DEPARTAMEN": "Cesar", "OBJECTID": 152, "CODIGO": "25020250", "ESTACION": "Curumani", "LON": -73.54194444, "LAT": 9.197194444, "MUNICIPIO": "Curumaní", "DATO": 7, "CATEGORIA": "Pluviométrica", "TECNOLOGIA": "Convencional"}}, {"type": "Feature", "id": 153, "geometry": {"type": "Point", "coordinates": [-71.70763888962301, 6.5706388892733685]}, "properties": {"ELEV": 300, "COD_DPTO": 81, "COD_MUNICI": 81794, "DEPARTAMEN": "Arauca", "OBJECTID": 153, "CODIGO": "36030030", "ESTACION": "Morichal", "LON": -71.70763889, "LAT": 6.570638889, "MUNICIPIO": "Tame", "DATO": 7, "CATEGORIA": "Pluviométrica", "TECNOLOGIA": "Convencional"}}, {"type": "Feature", "id": 154, "geometry": {"type": "Point", "coordinates": [-74.58038888983538, 9.872499999975048]}, "properties": {"ELEV": 85, "COD_DPTO": 47, "COD_MUNICI": 47555, "DEPARTAMEN": "Magdalena", "OBJECTID": 154, "CODIGO": "25021600", "ESTACION": "Apure", "LON": -74.58038889, "LAT": 9.8725, "MUNICIPIO": "Plato", "DATO": 7, "CATEGORIA": "Pluviométrica", "TECNOLOGIA": "Convencional"}}, {"type": "Feature", "id": 155, "geometry": {"type": "Point", "coordinates": [-75.51574999976265, 6.563222221728211]}, "properties": {"ELEV": 2320, "COD_DPTO": 5, "COD_MUNICI": 5264, "DEPARTAMEN": "Antioquia", "OBJECTID": 155, "CODIGO": "27010830", "ESTACION": "San Isidro", "LON": -75.51575, "LAT": 6.563222222, "MUNICIPIO": "Entrerríos", "DATO": 7, "CATEGORIA": "Pluviométrica", "TECNOLOGIA": "Convencional"}}, {"type": "Feature", "id": 156, "geometry": {"type": "Point", "coordinates": [-75.76638889023508, 4.454722219754672]}, "properties": {"ELEV": 1229, "COD_DPTO": 63, "COD_MUNICI": 63001, "DEPARTAMEN": "Quindío", "OBJECTID": 156, "CODIGO": "26125061", "ESTACION": "Aeropuerto El Edén - AUT", "LON": -75.76638889, "LAT": 4.45472222, "MUNICIPIO": "Armenia", "DATO": 6.3, "CATEGORIA": "Sinóptica Principal", "TECNOLOGIA": "Automática con Telemetría, Convencional"}}, {"type": "Feature", "id": 157, "geometry": {"type": "Point", "coordinates": [-72.67777778042017, 6.845277777647368]}, "properties": {"ELEV": 2841, "COD_DPTO": 68, "COD_MUNICI": 68162, "DEPARTAMEN": "Santander", "OBJECTID": 157, "CODIGO": "24035400", "ESTACION": "Volcan El", "LON": -72.67777778, "LAT": 6.845277778, "MUNICIPIO": "Cerrito", "DATO": 6.3, "CATEGORIA": "Climática Ordinaria", "TECNOLOGIA": "Convencional"}}, {"type": "Feature", "id": 158, "geometry": {"type": "Point", "coordinates": [-73.60916667030557, 5.9258333333417]}, "properties": {"ELEV": 1730, "COD_DPTO": 15, "COD_MUNICI": 15469, "DEPARTAMEN": "Boyacá", "OBJECTID": 158, "CODIGO": "24010750", "ESTACION": "Miravalles", "LON": -73.60916667, "LAT": 5.925833333, "MUNICIPIO": "Moniquirá", "DATO": 6.2, "CATEGORIA": "Pluviométrica", "TECNOLOGIA": "Convencional"}}, {"type": "Feature", "id": 159, "geometry": {"type": "Point", "coordinates": [-75.9614999998251, 1.3251388887487678]}, "properties": {"ELEV": 320, "COD_DPTO": 18, "COD_MUNICI": 18610, "DEPARTAMEN": "Caquetá", "OBJECTID": 159, "CODIGO": "44045010", "ESTACION": "San Jose De Fragua", "LON": -75.9615, "LAT": 1.325138889, "MUNICIPIO": "San José Del Fragua", "DATO": 6.2, "CATEGORIA": "Climática Ordinaria", "TECNOLOGIA": "Convencional"}}, {"type": "Feature", "id": 160, "geometry": {"type": "Point", "coordinates": [-74.15402778025782, 5.096750000112479]}, "properties": {"ELEV": 2314, "COD_DPTO": 25, "COD_MUNICI": 25513, "DEPARTAMEN": "Cundinamarca", "OBJECTID": 160, "CODIGO": "23063080", "ESTACION": "Negrete", "LON": -74.15402778, "LAT": 5.09675, "MUNICIPIO": "Pacho", "DATO": 6, "CATEGORIA": " ", "TECNOLOGIA": " "}}, {"type": "Feature", "id": 161, "geometry": {"type": "Point", "coordinates": [-75.72850000007492, 2.49127777814698]}, "properties": {"ELEV": 825, "COD_DPTO": 41, "COD_MUNICI": 41797, "DEPARTAMEN": "Huila", "OBJECTID": 161, "CODIGO": "21050290", "ESTACION": "Tesalia 2", "LON": -75.7285, "LAT": 2.491277778, "MUNICIPIO": "Tesalia", "DATO": 6, "CATEGORIA": "Pluviométrica", "TECNOLOGIA": "Convencional"}}, {"type": "Feature", "id": 162, "geometry": {"type": "Point", "coordinates": [-73.36941699959482, 4.04013900041457]}, "properties": {"ELEV": 262, "COD_DPTO": 50, "COD_MUNICI": 50001, "DEPARTAMEN": "Meta", "OBJECTID": 162, "CODIGO": "35020060", "ESTACION": "Pompeya", "LON": -73.369417, "LAT": 4.040139, "MUNICIPIO": "Villavicencio", "DATO": 6, "CATEGORIA": "Pluviométrica", "TECNOLOGIA": "Convencional"}}, {"type": "Feature", "id": 163, "geometry": {"type": "Point", "coordinates": [-75.52886110975237, 2.6696111113637357]}, "properties": {"ELEV": 600, "COD_DPTO": 41, "COD_MUNICI": 41885, "DEPARTAMEN": "Huila", "OBJECTID": 163, "CODIGO": "21080030", "ESTACION": "Yaguara", "LON": -75.52886111, "LAT": 2.669611111, "MUNICIPIO": "Yaguará", "DATO": 6, "CATEGORIA": "Pluviométrica", "TECNOLOGIA": "Convencional"}}, {"type": "Feature", "id": 164, "geometry": {"type": "Point", "coordinates": [-73.6028888898104, 5.383055555969179]}, "properties": {"ELEV": 2630, "COD_DPTO": 15, "COD_MUNICI": 15861, "DEPARTAMEN": "Boyacá", "OBJECTID": 164, "CODIGO": "35070020", "ESTACION": "Ventaquemada", "LON": -73.60288889, "LAT": 5.383055556, "MUNICIPIO": "Ventaquemada", "DATO": 6, "CATEGORIA": "Pluviométrica", "TECNOLOGIA": "Convencional"}}, {"type": "Feature", "id": 165, "geometry": {"type": "Point", "coordinates": [-74.1288333297943, 5.158666667332852]}, "properties": {"ELEV": 1940, "COD_DPTO": 25, "COD_MUNICI": 25513, "DEPARTAMEN": "Cundinamarca", "OBJECTID": 165, "CODIGO": "23065070", "ESTACION": "Institución Agrícola Escuela Vocacional", "LON": -74.12883333, "LAT": 5.158666667, "MUNICIPIO": "Pacho", "DATO": 6, "CATEGORIA": " ", "TECNOLOGIA": " "}}, {"type": "Feature", "id": 166, "geometry": {"type": "Point", "coordinates": [-81.37220399971477, 13.38340799957956]}, "properties": {"ELEV": 133, "COD_DPTO": 88, "COD_MUNICI": 88564, "DEPARTAMEN": "Archipiélago de San Andres, Providencia y Santa Catalina", "OBJECTID": 166, "CODIGO": "1704500201", "ESTACION": "Santa Catalina", "LON": -81.372204, "LAT": 13.383408, "MUNICIPIO": "Providencia", "DATO": 6, "CATEGORIA": "Pluviométrica", "TECNOLOGIA": "Convencional"}}, {"type": "Feature", "id": 167, "geometry": {"type": "Point", "coordinates": [-71.41972221990449, 7.037222222327728]}, "properties": {"ELEV": 100, "COD_DPTO": 81, "COD_MUNICI": 81065, "DEPARTAMEN": "Arauca", "OBJECTID": 167, "CODIGO": "37050010", "ESTACION": "Arauquita", "LON": -71.41972222, "LAT": 7.037222222, "MUNICIPIO": "Arauquita", "DATO": 6, "CATEGORIA": "Pluviométrica", "TECNOLOGIA": "Convencional"}}, {"type": "Feature", "id": 168, "geometry": {"type": "Point", "coordinates": [-73.86633333031892, 5.5555277780845245]}, "properties": {"ELEV": 2690, "COD_DPTO": 15, "COD_MUNICI": 15131, "DEPARTAMEN": "Boyacá", "OBJECTID": 168, "CODIGO": "24010420", "ESTACION": "Caldas", "LON": -73.86633333, "LAT": 5.555527778, "MUNICIPIO": "Caldas", "DATO": 6, "CATEGORIA": " ", "TECNOLOGIA": " "}}, {"type": "Feature", "id": 169, "geometry": {"type": "Point", "coordinates": [-73.46786499976986, 4.057415000302058]}, "properties": {"ELEV": 340, "COD_DPTO": 50, "COD_MUNICI": 50001, "DEPARTAMEN": "Meta", "OBJECTID": 169, "CODIGO": "35025110", "ESTACION": "La Libertad - Aut", "LON": -73.467865, "LAT": 4.057415, "MUNICIPIO": "Villavicencio", "DATO": 6, "CATEGORIA": "Agrometeorológica", "TECNOLOGIA": "Automática con Telemetría, Convencional"}}, {"type": "Feature", "id": 170, "geometry": {"type": "Point", "coordinates": [-73.78228999978364, 5.219570000055512]}, "properties": {"ELEV": 2818, "COD_DPTO": 25, "COD_MUNICI": 25224, "DEPARTAMEN": "Cundinamarca", "OBJECTID": 170, "CODIGO": "2401500040", "ESTACION": "Cucunuba", "LON": -73.78229, "LAT": 5.21957, "MUNICIPIO": "Cucunubá", "DATO": 5.9, "CATEGORIA": "Climática Principal", "TECNOLOGIA": "Automática con Telemetría, Convencional"}}, {"type": "Feature", "id": 171, "geometry": {"type": "Point", "coordinates": [-74.12900000024979, 4.684000000199887]}, "properties": {"ELEV": 2589, "COD_DPTO": 11, "COD_MUNICI": 11001, "DEPARTAMEN": "Bogotá, D.C.", "OBJECTID": 171, "CODIGO": "21202280", "ESTACION": "Sede Ideam Calle 25D Kra", "LON": -74.129, "LAT": 4.684, "MUNICIPIO": "Bogotá, D.C.", "DATO": 5.6, "CATEGORIA": "Pluviométrica", "TECNOLOGIA": "Convencional"}}, {"type": "Feature", "id": 172, "geometry": {"type": "Point", "coordinates": [-72.50916666980595, 7.930277779795745]}, "properties": {"ELEV": 250, "COD_DPTO": 54, "COD_MUNICI": 54001, "DEPARTAMEN": "Norte de Santander", "OBJECTID": 172, "CODIGO": "16015010", "ESTACION": "Aeropuerto Camilo Daza", "LON": -72.50916667, "LAT": 7.93027778, "MUNICIPIO": "San José De Cúcuta", "DATO": 5.6, "CATEGORIA": "Sinóptica Principal", "TECNOLOGIA": "Convencional"}}, {"type": "Feature", "id": 173, "geometry": {"type": "Point", "coordinates": [-73.76755556044071, 5.203944444080889]}, "properties": {"ELEV": 2885, "COD_DPTO": 25, "COD_MUNICI": 25772, "DEPARTAMEN": "Cundinamarca", "OBJECTID": 173, "CODIGO": "24015150", "ESTACION": "Carrizal", "LON": -73.76755556, "LAT": 5.203944444, "MUNICIPIO": "Suesca", "DATO": 5.5, "CATEGORIA": " ", "TECNOLOGIA": " "}}, {"type": "Feature", "id": 174, "geometry": {"type": "Point", "coordinates": [-73.98102778020785, 5.6494722216657465]}, "properties": {"ELEV": 1225, "COD_DPTO": 15, "COD_MUNICI": 15531, "DEPARTAMEN": "Boyacá", "OBJECTID": 174, "CODIGO": "23125090", "ESTACION": "Pauna", "LON": -73.98102778, "LAT": 5.649472222, "MUNICIPIO": "Pauna", "DATO": 5.4, "CATEGORIA": "Meteorológica Especial", "TECNOLOGIA": "Convencional"}}, {"type": "Feature", "id": 175, "geometry": {"type": "Point", "coordinates": [-73.91333333036886, 5.7583333333167275]}, "properties": {"ELEV": 1690, "COD_DPTO": 68, "COD_MUNICI": 68020, "DEPARTAMEN": "Santander", "OBJECTID": 175, "CODIGO": "23125060", "ESTACION": "Albania", "LON": -73.91333333, "LAT": 5.758333333, "MUNICIPIO": "Albania", "DATO": 5.2, "CATEGORIA": "Climática Ordinaria", "TECNOLOGIA": "Convencional"}}, {"type": "Feature", "id": 176, "geometry": {"type": "Point", "coordinates": [-73.14277777967078, 6.441111110589304]}, "properties": {"ELEV": 1300, "COD_DPTO": 68, "COD_MUNICI": 68855, "DEPARTAMEN": "Santander", "OBJECTID": 176, "CODIGO": "24020080", "ESTACION": "Valle De San Jose", "LON": -73.14277778, "LAT": 6.441111111, "MUNICIPIO": "Valle De San José", "DATO": 5.2, "CATEGORIA": "Pluviométrica", "TECNOLOGIA": "Convencional"}}, {"type": "Feature", "id": 177, "geometry": {"type": "Point", "coordinates": [-72.72972221980456, 6.706388889235882]}, "properties": {"ELEV": 2237, "COD_DPTO": 68, "COD_MUNICI": 68432, "DEPARTAMEN": "Santander", "OBJECTID": 177, "CODIGO": "24030950", "ESTACION": "Malaga 2 Aut", "LON": -72.72972222, "LAT": 6.706388889, "MUNICIPIO": "Málaga", "DATO": 5.2, "CATEGORIA": "Pluviográfica", "TECNOLOGIA": "Automática con Telemetría, Convencional"}}, {"type": "Feature", "id": 178, "geometry": {"type": "Point", "coordinates": [-70.73805556041572, 7.06944444020877]}, "properties": {"ELEV": 128, "COD_DPTO": 81, "COD_MUNICI": 81001, "DEPARTAMEN": "Arauca", "OBJECTID": 178, "CODIGO": "37055010", "ESTACION": "Aeropuerto Santiago Pérez", "LON": -70.73805556, "LAT": 7.06944444, "MUNICIPIO": "Arauca", "DATO": 5.2, "CATEGORIA": "Sinóptica Principal", "TECNOLOGIA": "Convencional"}}, {"type": "Feature", "id": 179, "geometry": {"type": "Point", "coordinates": [-76.54152777998303, 1.026805556131535]}, "properties": {"ELEV": 430, "COD_DPTO": 86, "COD_MUNICI": 86001, "DEPARTAMEN": "Putumayo", "OBJECTID": 179, "CODIGO": "44010110", "ESTACION": "Puerto Limon", "LON": -76.54152778, "LAT": 1.026805556, "MUNICIPIO": "Mocoa", "DATO": 5.1, "CATEGORIA": "Pluviométrica", "TECNOLOGIA": "Convencional"}}, {"type": "Feature", "id": 180, "geometry": {"type": "Point", "coordinates": [-72.71802999988455, 2.547925000038788]}, "properties": {"ELEV": 191, "COD_DPTO": 95, "COD_MUNICI": 95001, "DEPARTAMEN": "Guaviare", "OBJECTID": 180, "CODIGO": "32105080", "ESTACION": "San Jose Del Guaviare", "LON": -72.71803, "LAT": 2.547925, "MUNICIPIO": "San José Del Guaviare", "DATO": 5, "CATEGORIA": "Agrometeorológica", "TECNOLOGIA": "Automática con Telemetría, Convencional"}}, {"type": "Feature", "id": 181, "geometry": {"type": "Point", "coordinates": [-75.7284722200169, 2.334027777759786]}, "properties": {"ELEV": 2210, "COD_DPTO": 41, "COD_MUNICI": 41013, "DEPARTAMEN": "Huila", "OBJECTID": 181, "CODIGO": "21040020", "ESTACION": "Antena Tv", "LON": -75.72847222, "LAT": 2.334027778, "MUNICIPIO": "Agrado", "DATO": 5, "CATEGORIA": "Pluviométrica", "TECNOLOGIA": "Convencional"}}, {"type": "Feature", "id": 182, "geometry": {"type": "Point", "coordinates": [-76.48022222007933, 0.4736111113637662]}, "properties": {"ELEV": 260, "COD_DPTO": 86, "COD_MUNICI": 86568, "DEPARTAMEN": "Putumayo", "OBJECTID": 182, "CODIGO": "47010030", "ESTACION": "Puerto Asis", "LON": -76.48022222, "LAT": 0.473611111, "MUNICIPIO": "Puerto Asís", "DATO": 5, "CATEGORIA": "Pluviométrica", "TECNOLOGIA": "Convencional"}}, {"type": "Feature", "id": 183, "geometry": {"type": "Point", "coordinates": [-75.16380556007852, 6.468305556156565]}, "properties": {"ELEV": 1944, "COD_DPTO": 5, "COD_MUNICI": 5690, "DEPARTAMEN": "Antioquia", "OBJECTID": 183, "CODIGO": "23080390", "ESTACION": "Santo Domingo", "LON": -75.16380556, "LAT": 6.468305556, "MUNICIPIO": "Santo Domingo", "DATO": 5, "CATEGORIA": "Pluviográfica", "TECNOLOGIA": "Convencional"}}, {"type": "Feature", "id": 184, "geometry": {"type": "Point", "coordinates": [-76.66875000001244, 1.9004166665959588]}, "properties": {"ELEV": 2900, "COD_DPTO": 19, "COD_MUNICI": 19693, "DEPARTAMEN": "Cauca", "OBJECTID": 184, "CODIGO": "44015030", "ESTACION": "Valencia", "LON": -76.66875, "LAT": 1.900416667, "MUNICIPIO": "San Sebastián", "DATO": 5, "CATEGORIA": "Climática Principal", "TECNOLOGIA": "Convencional"}}, {"type": "Feature", "id": 185, "geometry": {"type": "Point", "coordinates": [-76.5330555601659, 8.755222221628287]}, "properties": {"ELEV": 4, "COD_DPTO": 5, "COD_MUNICI": 5659, "DEPARTAMEN": "Antioquia", "OBJECTID": 185, "CODIGO": "12030010", "ESTACION": "San Juan De Uraba", "LON": -76.53305556, "LAT": 8.755222222, "MUNICIPIO": "San Juan De Urabá", "DATO": 5, "CATEGORIA": "Pluviométrica", "TECNOLOGIA": "Convencional"}}, {"type": "Feature", "id": 186, "geometry": {"type": "Point", "coordinates": [-75.66833332991922, 6.609166666808278]}, "properties": {"ELEV": 2540, "COD_DPTO": 5, "COD_MUNICI": 5086, "DEPARTAMEN": "Antioquia", "OBJECTID": 186, "CODIGO": "27010870", "ESTACION": "Belmira", "LON": -75.66833333, "LAT": 6.609166667, "MUNICIPIO": "Belmira", "DATO": 5, "CATEGORIA": "Pluviométrica", "TECNOLOGIA": "Convencional"}}, {"type": "Feature", "id": 187, "geometry": {"type": "Point", "coordinates": [-73.79638889003519, 5.919722222402697]}, "properties": {"ELEV": 2270, "COD_DPTO": 68, "COD_MUNICI": 68773, "DEPARTAMEN": "Santander", "OBJECTID": 187, "CODIGO": "24010670", "ESTACION": "Sucre", "LON": -73.79638889, "LAT": 5.919722222, "MUNICIPIO": "Sucre", "DATO": 5, "CATEGORIA": "Pluviométrica", "TECNOLOGIA": "Convencional"}}, {"type": "Feature", "id": 188, "geometry": {"type": "Point", "coordinates": [-76.6192499997876, 1.0342500001374333]}, "properties": {"ELEV": 440, "COD_DPTO": 86, "COD_MUNICI": 86885, "DEPARTAMEN": "Putumayo", "OBJECTID": 188, "CODIGO": "44015010", "ESTACION": "Villagarzón", "LON": -76.61925, "LAT": 1.03425, "MUNICIPIO": "Villagarzón", "DATO": 5, "CATEGORIA": "Climática Principal", "TECNOLOGIA": "Convencional"}}, {"type": "Feature", "id": 189, "geometry": {"type": "Point", "coordinates": [-73.81916666970602, 5.192638888573924]}, "properties": {"ELEV": 2796, "COD_DPTO": 25, "COD_MUNICI": 25224, "DEPARTAMEN": "Cundinamarca", "OBJECTID": 189, "CODIGO": "21201680", "ESTACION": "Alto del Aire", "LON": -73.81916667, "LAT": 5.192638889, "MUNICIPIO": "Cucunubá", "DATO": 4.9, "CATEGORIA": " ", "TECNOLOGIA": " "}}, {"type": "Feature", "id": 190, "geometry": {"type": "Point", "coordinates": [-75.29305555976623, 2.9487500004122467]}, "properties": {"ELEV": 439, "COD_DPTO": 41, "COD_MUNICI": 41001, "DEPARTAMEN": "Huila", "OBJECTID": 190, "CODIGO": "21115020", "ESTACION": "Aeropuerto Benito Salas", "LON": -75.29305556000001, "LAT": 2.94875, "MUNICIPIO": "Neiva", "DATO": 4.7, "CATEGORIA": "Sinóptica Secundaria", "TECNOLOGIA": "Convencional"}}, {"type": "Feature", "id": 191, "geometry": {"type": "Point", "coordinates": [-74.18241667029304, 5.520833332892039]}, "properties": {"ELEV": 1250, "COD_DPTO": 15, "COD_MUNICI": 15580, "DEPARTAMEN": "Boyacá", "OBJECTID": 191, "CODIGO": "23125140", "ESTACION": "Aeropuerto Furatena - Aut", "LON": -74.18241667, "LAT": 5.520833333, "MUNICIPIO": "Quípama", "DATO": 4.7, "CATEGORIA": "Climática Ordinaria", "TECNOLOGIA": "Automática con Telemetría, Convencional"}}, {"type": "Feature", "id": 192, "geometry": {"type": "Point", "coordinates": [-75.49000000029974, 3.2700000003997616]}, "properties": {"ELEV": 1085, "COD_DPTO": 41, "COD_MUNICI": 41016, "DEPARTAMEN": "Huila", "OBJECTID": 192, "CODIGO": "21130110", "ESTACION": "Praga", "LON": -75.49, "LAT": 3.27, "MUNICIPIO": "Aipe", "DATO": 4.6, "CATEGORIA": "Pluviométrica", "TECNOLOGIA": "Convencional"}}, {"type": "Feature", "id": 193, "geometry": {"type": "Point", "coordinates": [-73.73016666995579, 5.084250000137445]}, "properties": {"ELEV": 2689, "COD_DPTO": 25, "COD_MUNICI": 25183, "DEPARTAMEN": "Cundinamarca", "OBJECTID": 193, "CODIGO": "21206590", "ESTACION": "Represa Sisga", "LON": -73.73016667, "LAT": 5.08425, "MUNICIPIO": "Chocontá", "DATO": 4.5, "CATEGORIA": " ", "TECNOLOGIA": " "}}, {"type": "Feature", "id": 194, "geometry": {"type": "Point", "coordinates": [-72.69722222022926, 6.836111111238836]}, "properties": {"ELEV": 2440, "COD_DPTO": 68, "COD_MUNICI": 68162, "DEPARTAMEN": "Santander", "OBJECTID": 194, "CODIGO": "24030210", "ESTACION": "Cerrito", "LON": -72.69722222, "LAT": 6.836111111, "MUNICIPIO": "Cerrito", "DATO": 4.5, "CATEGORIA": "Pluviométrica", "TECNOLOGIA": "Convencional"}}, {"type": "Feature", "id": 195, "geometry": {"type": "Point", "coordinates": [-70.8516666698809, 6.974166667157988]}, "properties": {"ELEV": 150, "COD_DPTO": 81, "COD_MUNICI": 81001, "DEPARTAMEN": "Arauca", "OBJECTID": 195, "CODIGO": "37050040", "ESTACION": "Matezamuro", "LON": -70.85166667, "LAT": 6.974166667, "MUNICIPIO": "Arauca", "DATO": 4.5, "CATEGORIA": "Pluviométrica", "TECNOLOGIA": "Convencional"}}, {"type": "Feature", "id": 196, "geometry": {"type": "Point", "coordinates": [-73.7708333302939, 5.986111111138939]}, "properties": {"ELEV": 2165, "COD_DPTO": 68, "COD_MUNICI": 68101, "DEPARTAMEN": "Santander", "OBJECTID": 196, "CODIGO": "24010640", "ESTACION": "Bolívar", "LON": -73.77083333, "LAT": 5.986111111, "MUNICIPIO": "Bolívar", "DATO": 4.5, "CATEGORIA": "Pluviométrica", "TECNOLOGIA": "Convencional"}}, {"type": "Feature", "id": 197, "geometry": {"type": "Point", "coordinates": [-73.45377778002052, 5.352694443693679]}, "properties": {"ELEV": 2438, "COD_DPTO": 15, "COD_MUNICI": 15494, "DEPARTAMEN": "Boyacá", "OBJECTID": 197, "CODIGO": "35075010", "ESTACION": "Nuevo Colon", "LON": -73.45377778, "LAT": 5.352694444, "MUNICIPIO": "Nuevo Colón", "DATO": 4.5, "CATEGORIA": "Agrometeorológica", "TECNOLOGIA": "Convencional"}}, {"type": "Feature", "id": 198, "geometry": {"type": "Point", "coordinates": [-73.48944444000887, 7.3899999999001125]}, "properties": {"ELEV": 144, "COD_DPTO": 68, "COD_MUNICI": 68655, "DEPARTAMEN": "Santander", "OBJECTID": 198, "CODIGO": "23180070", "ESTACION": "Sabana De Torres", "LON": -73.48944444, "LAT": 7.39, "MUNICIPIO": "Sabana De Torres", "DATO": 4.3, "CATEGORIA": "Pluviométrica", "TECNOLOGIA": "Automática con Telemetría, Convencional"}}, {"type": "Feature", "id": 199, "geometry": {"type": "Point", "coordinates": [-73.81455555959138, 5.298916667070557]}, "properties": {"ELEV": 2587, "COD_DPTO": 25, "COD_MUNICI": 25843, "DEPARTAMEN": "Cundinamarca", "OBJECTID": 199, "CODIGO": "24011150", "ESTACION": "Campamento Ubaté", "LON": -73.81455556, "LAT": 5.298916667, "MUNICIPIO": "Villa De San Diego De Ubaté", "DATO": 4.2, "CATEGORIA": "Pluviográfica", "TECNOLOGIA": "Convencional"}}, {"type": "Feature", "id": 200, "geometry": {"type": "Point", "coordinates": [-73.34941666994331, 5.422222221778156]}, "properties": {"ELEV": 2200, "COD_DPTO": 15, "COD_MUNICI": 15599, "DEPARTAMEN": "Boyacá", "OBJECTID": 200, "CODIGO": "35075030", "ESTACION": "Villa Luisa", "LON": -73.34941667, "LAT": 5.422222222, "MUNICIPIO": "Ramiriquí", "DATO": 4.2, "CATEGORIA": "Climática Ordinaria", "TECNOLOGIA": "Convencional"}}, {"type": "Feature", "id": 201, "geometry": {"type": "Point", "coordinates": [-74.29972221990448, 4.4496666673828145]}, "properties": {"ELEV": 2750, "COD_DPTO": 25, "COD_MUNICI": 25740, "DEPARTAMEN": "Cundinamarca", "OBJECTID": 201, "CODIGO": "21201920", "ESTACION": "Alto San Miguel", "LON": -74.29972222, "LAT": 4.449666667, "MUNICIPIO": "Sibaté", "DATO": 4.2, "CATEGORIA": "Pluviométrica", "TECNOLOGIA": "Convencional"}}, {"type": "Feature", "id": 202, "geometry": {"type": "Point", "coordinates": [-73.3883333296194, 7.759722221603283]}, "properties": {"ELEV": 134, "COD_DPTO": 20, "COD_MUNICI": 20710, "DEPARTAMEN": "Cesar", "OBJECTID": 202, "CODIGO": "23190500", "ESTACION": "San Alberto", "LON": -73.38833333, "LAT": 7.759722222, "MUNICIPIO": "San Alberto", "DATO": 4, "CATEGORIA": "Pluviométrica", "TECNOLOGIA": "Convencional"}}, {"type": "Feature", "id": 203, "geometry": {"type": "Point", "coordinates": [-76.0856944399464, 1.961472222165355]}, "properties": {"ELEV": 1334, "COD_DPTO": 41, "COD_MUNICI": 41551, "DEPARTAMEN": "Huila", "OBJECTID": 203, "CODIGO": "21010040", "ESTACION": "Laguna La", "LON": -76.08569444, "LAT": 1.961472222, "MUNICIPIO": "Pitalito", "DATO": 4, "CATEGORIA": "Pluviométrica", "TECNOLOGIA": "Convencional"}}, {"type": "Feature", "id": 204, "geometry": {"type": "Point", "coordinates": [-75.5809166702681, 2.6369166666708566]}, "properties": {"ELEV": 650, "COD_DPTO": 41, "COD_MUNICI": 41885, "DEPARTAMEN": "Huila", "OBJECTID": 204, "CODIGO": "21080070", "ESTACION": "Santa Rosa Hacienda", "LON": -75.58091667, "LAT": 2.636916667, "MUNICIPIO": "Yaguará", "DATO": 4, "CATEGORIA": "Pluviométrica", "TECNOLOGIA": "Convencional"}}, {"type": "Feature", "id": 205, "geometry": {"type": "Point", "coordinates": [-76.60516666960609, 0.6859166667208569]}, "properties": {"ELEV": 300, "COD_DPTO": 86, "COD_MUNICI": 86569, "DEPARTAMEN": "Putumayo", "OBJECTID": 205, "CODIGO": "47010110", "ESTACION": "Puerto Caicedo", "LON": -76.60516667, "LAT": 0.685916667, "MUNICIPIO": "Puerto Caicedo", "DATO": 4, "CATEGORIA": "Pluviométrica", "TECNOLOGIA": "Convencional"}}, {"type": "Feature", "id": 206, "geometry": {"type": "Point", "coordinates": [-75.19902777960829, 3.118472221615775]}, "properties": {"ELEV": 500, "COD_DPTO": 41, "COD_MUNICI": 41799, "DEPARTAMEN": "Huila", "OBJECTID": 206, "CODIGO": "21110160", "ESTACION": "Mesa Redonda", "LON": -75.19902778, "LAT": 3.118472222, "MUNICIPIO": "Tello", "DATO": 4, "CATEGORIA": "Pluviométrica", "TECNOLOGIA": "Convencional"}}, {"type": "Feature", "id": 207, "geometry": {"type": "Point", "coordinates": [-75.6072222196297, 6.399722221803131]}, "properties": {"ELEV": 2600, "COD_DPTO": 5, "COD_MUNICI": 5088, "DEPARTAMEN": "Antioquia", "OBJECTID": 207, "CODIGO": "27010800", "ESTACION": "La Meseta San Pedro", "LON": -75.60722222, "LAT": 6.399722222, "MUNICIPIO": "Bello", "DATO": 4, "CATEGORIA": "Pluviométrica", "TECNOLOGIA": "Convencional"}}, {"type": "Feature", "id": 208, "geometry": {"type": "Point", "coordinates": [-74.10224700039873, 4.78659400001311]}, "properties": {"ELEV": 2590, "COD_DPTO": 11, "COD_MUNICI": 11001, "DEPARTAMEN": "Bogotá, D.C.", "OBJECTID": 208, "CODIGO": "21206600", "ESTACION": "Nueva Generacion", "LON": -74.102247, "LAT": 4.786594, "MUNICIPIO": "Bogotá, D.C.", "DATO": 3.9, "CATEGORIA": "Climática Principal", "TECNOLOGIA": "Automática con Telemetría, Convencional"}}, {"type": "Feature", "id": 209, "geometry": {"type": "Point", "coordinates": [-74.20562600043951, 4.688662000251156]}, "properties": {"ELEV": 2543, "COD_DPTO": 25, "COD_MUNICI": 25473, "DEPARTAMEN": "Cundinamarca", "OBJECTID": 209, "CODIGO": "21205420", "ESTACION": "Tibaitata", "LON": -74.205626, "LAT": 4.688662, "MUNICIPIO": "Mosquera", "DATO": 3.8, "CATEGORIA": "Agrometeorológica", "TECNOLOGIA": "Automática con Telemetría, Convencional"}}, {"type": "Feature", "id": 210, "geometry": {"type": "Point", "coordinates": [-73.94311110998967, 5.514916667070565]}, "properties": {"ELEV": 2200, "COD_DPTO": 15, "COD_MUNICI": 15109, "DEPARTAMEN": "Boyacá", "OBJECTID": 210, "CODIGO": "23125100", "ESTACION": "Buenavista", "LON": -73.94311111, "LAT": 5.514916667, "MUNICIPIO": "Buenavista", "DATO": 3.7, "CATEGORIA": "Climática Principal", "TECNOLOGIA": "Convencional"}}, {"type": "Feature", "id": 211, "geometry": {"type": "Point", "coordinates": [-77.84833333041882, 0.8116666668832409]}, "properties": {"ELEV": 3100, "COD_DPTO": 52, "COD_MUNICI": 52227, "DEPARTAMEN": "Nariño", "OBJECTID": 211, "CODIGO": "52050130", "ESTACION": "Chiles", "LON": -77.84833333, "LAT": 0.811666667, "MUNICIPIO": "Cumbal", "DATO": 3.6, "CATEGORIA": "Pluviométrica", "TECNOLOGIA": "Convencional"}}, {"type": "Feature", "id": 212, "geometry": {"type": "Point", "coordinates": [-73.89041667019313, 4.48652777813453]}, "properties": {"ELEV": 1900, "COD_DPTO": 25, "COD_MUNICI": 25279, "DEPARTAMEN": "Cundinamarca", "OBJECTID": 212, "CODIGO": "35020290", "ESTACION": "Fomeque", "LON": -73.89041667, "LAT": 4.486527778, "MUNICIPIO": "Fómeque", "DATO": 3.6, "CATEGORIA": "Pluviométrica", "TECNOLOGIA": "Convencional"}}, {"type": "Feature", "id": 213, "geometry": {"type": "Point", "coordinates": [-73.7097500000624, 5.30319444436816]}, "properties": {"ELEV": 2650, "COD_DPTO": 25, "COD_MUNICI": 25407, "DEPARTAMEN": "Cundinamarca", "OBJECTID": 213, "CODIGO": "24010070", "ESTACION": "Leticia", "LON": -73.70975, "LAT": 5.303194444, "MUNICIPIO": "Lenguazaque", "DATO": 3.6, "CATEGORIA": "Pluviométrica", "TECNOLOGIA": "Convencional"}}, {"type": "Feature", "id": 214, "geometry": {"type": "Point", "coordinates": [-73.16349999962523, 5.533805556081575]}, "properties": {"ELEV": 3200, "COD_DPTO": 15, "COD_MUNICI": 15814, "DEPARTAMEN": "Boyacá", "OBJECTID": 214, "CODIGO": "24030800", "ESTACION": "Casa Amarilla", "LON": -73.1635, "LAT": 5.533805556, "MUNICIPIO": "Toca", "DATO": 3.5, "CATEGORIA": "Pluviométrica", "TECNOLOGIA": "Convencional"}}, {"type": "Feature", "id": 215, "geometry": {"type": "Point", "coordinates": [-73.1163600003137, 5.745829999554871]}, "properties": {"ELEV": 2521, "COD_DPTO": 15, "COD_MUNICI": 15516, "DEPARTAMEN": "Boyacá", "OBJECTID": 215, "CODIGO": "24035430", "ESTACION": "Tunguavita - Aut", "LON": -73.11636, "LAT": 5.74583, "MUNICIPIO": "Paipa", "DATO": 3.5, "CATEGORIA": "Agrometeorológica", "TECNOLOGIA": "Automática con Telemetría, Convencional"}}, {"type": "Feature", "id": 216, "geometry": {"type": "Point", "coordinates": [-72.81138889038493, 6.671666666683393]}, "properties": {"ELEV": 2150, "COD_DPTO": 68, "COD_MUNICI": 68468, "DEPARTAMEN": "Santander", "OBJECTID": 216, "CODIGO": "24030340", "ESTACION": "Molagavita", "LON": -72.81138889, "LAT": 6.671666667, "MUNICIPIO": "Molagavita", "DATO": 3.5, "CATEGORIA": "Pluviométrica", "TECNOLOGIA": "Convencional"}}, {"type": "Feature", "id": 217, "geometry": {"type": "Point", "coordinates": [-72.40919444017123, 6.463472221765699]}, "properties": {"ELEV": 2963, "COD_DPTO": 15, "COD_MUNICI": 15332, "DEPARTAMEN": "Boyacá", "OBJECTID": 217, "CODIGO": "24035070", "ESTACION": "Guican", "LON": -72.40919444, "LAT": 6.463472222, "MUNICIPIO": "Güicán De La Sierra", "DATO": 3.3, "CATEGORIA": "Climática Ordinaria", "TECNOLOGIA": "Convencional"}}, {"type": "Feature", "id": 218, "geometry": {"type": "Point", "coordinates": [-76.98127778034524, 1.1178888893608132]}, "properties": {"ELEV": 270, "COD_DPTO": 86, "COD_MUNICI": 86760, "DEPARTAMEN": "Putumayo", "OBJECTID": 218, "CODIGO": "47010020", "ESTACION": "Balsayaco", "LON": -76.98127778, "LAT": 1.117888889, "MUNICIPIO": "Santiago", "DATO": 3.2, "CATEGORIA": "Pluviográfica", "TECNOLOGIA": "Convencional"}}, {"type": "Feature", "id": 219, "geometry": {"type": "Point", "coordinates": [-74.17722222032916, 4.703222222027989]}, "properties": {"ELEV": 2571, "COD_DPTO": 25, "COD_MUNICI": 25286, "DEPARTAMEN": "Cundinamarca", "OBJECTID": 219, "CODIGO": "21205160", "ESTACION": "La Ramada", "LON": -74.17722222, "LAT": 4.703222222, "MUNICIPIO": "Funza", "DATO": 3.2, "CATEGORIA": " ", "TECNOLOGIA": " "}}, {"type": "Feature", "id": 220, "geometry": {"type": "Point", "coordinates": [-72.368333330219, 8.185555555944177]}, "properties": {"ELEV": 72, "COD_DPTO": 54, "COD_MUNICI": 54001, "DEPARTAMEN": "Norte De Santander", "OBJECTID": 220, "CODIGO": "16010040", "ESTACION": "Santa Rita", "LON": -72.36833333, "LAT": 8.185555556, "MUNICIPIO": "San José De Cúcuta", "DATO": 3, "CATEGORIA": "Pluviométrica", "TECNOLOGIA": "Convencional"}}, {"type": "Feature", "id": 221, "geometry": {"type": "Point", "coordinates": [-77.03730556000357, 1.1367500001124426]}, "properties": {"ELEV": 2300, "COD_DPTO": 86, "COD_MUNICI": 86760, "DEPARTAMEN": "Putumayo", "OBJECTID": 221, "CODIGO": "47010150", "ESTACION": "Carrizal", "LON": -77.03730556, "LAT": 1.13675, "MUNICIPIO": "Santiago", "DATO": 3, "CATEGORIA": "Pluviométrica", "TECNOLOGIA": "Convencional"}}, {"type": "Feature", "id": 222, "geometry": {"type": "Point", "coordinates": [-74.1034079999792, 4.621607999909315]}, "properties": {"ELEV": 2559, "COD_DPTO": 11, "COD_MUNICI": 11001, "DEPARTAMEN": "Bogotá, D.C.", "OBJECTID": 222, "CODIGO": "2120500204", "ESTACION": "Ideam Puente Aranda", "LON": -74.103408, "LAT": 4.621608, "MUNICIPIO": "Bogotá, D.C.", "DATO": 3, "CATEGORIA": "Climática Principal", "TECNOLOGIA": "Automática con Telemetría"}}, {"type": "Feature", "id": 223, "geometry": {"type": "Point", "coordinates": [-75.61686111105138, 7.323749999762754]}, "properties": {"ELEV": 2039, "COD_DPTO": 5, "COD_MUNICI": 5361, "DEPARTAMEN": "Antioquia", "OBJECTID": 223, "CODIGO": "26220110", "ESTACION": "Santa Rita", "LON": -75.616861111, "LAT": 7.32375, "MUNICIPIO": "Ituango", "DATO": 3, "CATEGORIA": "Pluviométrica", "TECNOLOGIA": "Convencional"}}, {"type": "Feature", "id": 224, "geometry": {"type": "Point", "coordinates": [-75.90999999999997, 2.0200000001999]}, "properties": {"ELEV": 1017, "COD_DPTO": 41, "COD_MUNICI": 41244, "DEPARTAMEN": "Huila", "OBJECTID": 224, "CODIGO": "21020040", "ESTACION": "Viso El", "LON": -75.91, "LAT": 2.02, "MUNICIPIO": "Elías", "DATO": 3, "CATEGORIA": "Pluviométrica", "TECNOLOGIA": "Convencional"}}, {"type": "Feature", "id": 225, "geometry": {"type": "Point", "coordinates": [-73.90510000016485, 5.303689999593871]}, "properties": {"ELEV": 2849, "COD_DPTO": 25, "COD_MUNICI": 25154, "DEPARTAMEN": "Cundinamarca", "OBJECTID": 225, "CODIGO": "24015340", "ESTACION": "Represa El Hato", "LON": -73.9051, "LAT": 5.30369, "MUNICIPIO": "Carmen De Carupa", "DATO": 3, "CATEGORIA": " ", "TECNOLOGIA": " "}}, {"type": "Feature", "id": 226, "geometry": {"type": "Point", "coordinates": [-73.7975277797832, 5.403305556306407]}, "properties": {"ELEV": 2896, "COD_DPTO": 25, "COD_MUNICI": 25288, "DEPARTAMEN": "Cundinamarca", "OBJECTID": 226, "CODIGO": "24010360", "ESTACION": "Monserrate", "LON": -73.79752778, "LAT": 5.403305556, "MUNICIPIO": "Fúquene", "DATO": 3, "CATEGORIA": " ", "TECNOLOGIA": " "}}, {"type": "Feature", "id": 227, "geometry": {"type": "Point", "coordinates": [-74.73999999999995, 3.4799999998002136]}, "properties": {"ELEV": 1049, "COD_DPTO": 41, "COD_MUNICI": 41206, "DEPARTAMEN": "Huila", "OBJECTID": 227, "CODIGO": "21140080", "ESTACION": "Miraflores", "LON": -74.74, "LAT": 3.48, "MUNICIPIO": "Colombia", "DATO": 3, "CATEGORIA": "Pluviométrica", "TECNOLOGIA": "Convencional"}}, {"type": "Feature", "id": 228, "geometry": {"type": "Point", "coordinates": [-75.057333330169, 3.1503333329170005]}, "properties": {"ELEV": 615, "COD_DPTO": 41, "COD_MUNICI": 41078, "DEPARTAMEN": "Huila", "OBJECTID": 228, "CODIGO": "21110070", "ESTACION": "Baraya", "LON": -75.05733333, "LAT": 3.150333333, "MUNICIPIO": "Baraya", "DATO": 3, "CATEGORIA": "Pluviométrica", "TECNOLOGIA": "Convencional"}}, {"type": "Feature", "id": 229, "geometry": {"type": "Point", "coordinates": [-74.92024999983761, 3.425861111201357]}, "properties": {"ELEV": 1400, "COD_DPTO": 73, "COD_MUNICI": 73024, "DEPARTAMEN": "Tolima", "OBJECTID": 229, "CODIGO": "21140120", "ESTACION": "Cruces Las", "LON": -74.92025, "LAT": 3.425861111, "MUNICIPIO": "Alpujarra", "DATO": 3, "CATEGORIA": "Pluviométrica", "TECNOLOGIA": "Automática con Telemetría, Convencional"}}, {"type": "Feature", "id": 230, "geometry": {"type": "Point", "coordinates": [-74.40738888888609, 4.574500000274838]}, "properties": {"ELEV": 1685, "COD_DPTO": 25, "COD_MUNICI": 25245, "DEPARTAMEN": "Cundinamarca", "OBJECTID": 230, "CODIGO": "21202160", "ESTACION": "Hidroparaiso", "LON": -74.407388889, "LAT": 4.5745, "MUNICIPIO": "El Colegio", "DATO": 2.9, "CATEGORIA": "Pluviométrica", "TECNOLOGIA": "Convencional"}}, {"type": "Feature", "id": 231, "geometry": {"type": "Point", "coordinates": [-73.70250000027477, 5.961388889285843]}, "properties": {"ELEV": 218, "COD_DPTO": 68, "COD_MUNICI": 68324, "DEPARTAMEN": "Santander", "OBJECTID": 231, "CODIGO": "24010820", "ESTACION": "Guavata", "LON": -73.7025, "LAT": 5.961388889, "MUNICIPIO": "Guavatá", "DATO": 2.8, "CATEGORIA": "Pluviométrica", "TECNOLOGIA": "Convencional"}}, {"type": "Feature", "id": 232, "geometry": {"type": "Point", "coordinates": [-72.83249999967518, 7.950277777597421]}, "properties": {"ELEV": 1200, "COD_DPTO": 54, "COD_MUNICI": 54418, "DEPARTAMEN": "Norte De Santander", "OBJECTID": 232, "CODIGO": "16030080", "ESTACION": "Lourdes", "LON": -72.8325, "LAT": 7.950277778, "MUNICIPIO": "Lourdes", "DATO": 2.8, "CATEGORIA": "Pluviométrica", "TECNOLOGIA": "Convencional"}}, {"type": "Feature", "id": 233, "geometry": {"type": "Point", "coordinates": [-74.20091666996831, 4.792388888636367]}, "properties": {"ELEV": 2560, "COD_DPTO": 25, "COD_MUNICI": 25799, "DEPARTAMEN": "Cundinamarca", "OBJECTID": 233, "CODIGO": "21205980", "ESTACION": "Granja Providencia", "LON": -74.20091667, "LAT": 4.792388889, "MUNICIPIO": "Tenjo", "DATO": 2.6, "CATEGORIA": "Climática Ordinaria", "TECNOLOGIA": "Convencional"}}, {"type": "Feature", "id": 234, "geometry": {"type": "Point", "coordinates": [-72.93166666968102, 6.939722221803152]}, "properties": {"ELEV": 250, "COD_DPTO": 68, "COD_MUNICI": 68705, "DEPARTAMEN": "Santander", "OBJECTID": 234, "CODIGO": "24030330", "ESTACION": "Tope El", "LON": -72.93166667, "LAT": 6.939722222, "MUNICIPIO": "Santa Bárbara", "DATO": 2.5, "CATEGORIA": "Pluviométrica", "TECNOLOGIA": "Convencional"}}, {"type": "Feature", "id": 235, "geometry": {"type": "Point", "coordinates": [-73.54891666986839, 5.750805556331386]}, "properties": {"ELEV": 2375, "COD_DPTO": 15, "COD_MUNICI": 15293, "DEPARTAMEN": "Boyacá", "OBJECTID": 235, "CODIGO": "24010810", "ESTACION": "Gachantiva", "LON": -73.54891667, "LAT": 5.750805556, "MUNICIPIO": "Gachantivá", "DATO": 2.5, "CATEGORIA": "Pluviométrica", "TECNOLOGIA": "Convencional"}}, {"type": "Feature", "id": 236, "geometry": {"type": "Point", "coordinates": [-73.53722221962971, 7.456111111438702]}, "properties": {"ELEV": 328, "COD_DPTO": 68, "COD_MUNICI": 68655, "DEPARTAMEN": "Santander", "OBJECTID": 236, "CODIGO": "23185010", "ESTACION": "Villa Leiva", "LON": -73.53722222, "LAT": 7.456111111, "MUNICIPIO": "Sabana De Torres", "DATO": 2.5, "CATEGORIA": "Climática Principal", "TECNOLOGIA": "Convencional"}}, {"type": "Feature", "id": 237, "geometry": {"type": "Point", "coordinates": [-72.98749999972517, 7.365829999554876]}, "properties": {"ELEV": 1791, "COD_DPTO": 68, "COD_MUNICI": 68780, "DEPARTAMEN": "Santander", "OBJECTID": 237, "CODIGO": "23195090", "ESTACION": "Vivero Surata - Aut", "LON": -72.9875, "LAT": 7.36583, "MUNICIPIO": "Suratá", "DATO": 2.5, "CATEGORIA": "Climática Ordinaria", "TECNOLOGIA": "Automática con Telemetría, Convencional"}}, {"type": "Feature", "id": 238, "geometry": {"type": "Point", "coordinates": [-73.85802778005797, 5.512111111438685]}, "properties": {"ELEV": 2622, "COD_DPTO": 25, "COD_MUNICI": 25745, "DEPARTAMEN": "Cundinamarca", "OBJECTID": 238, "CODIGO": "24015130", "ESTACION": "Simijaca", "LON": -73.85802778, "LAT": 5.512111111, "MUNICIPIO": "Simijaca", "DATO": 2.4, "CATEGORIA": " ", "TECNOLOGIA": " "}}, {"type": "Feature", "id": 239, "geometry": {"type": "Point", "coordinates": [-74.43905555956638, 4.578833333191824]},